[
    {
        "name": "Cửa hàng xăng dầu Hà Yên",
        "address": "P Nguyễn Trãi - TP Hà Giang",
        "phone": "02193862201",
        "location": {
            "lat": 22.8178027,
            "lng": 104.9768543
        }
    },
    {
        "name": "Cửa hàng xăng dầu Cầu Mè",
        "address": "P Nguyễn Trãi - TP Hà Giang",
        "phone": "02193867212",
        "location": {
            "lat": 22.8178027,
            "lng": 104.9768543
        }
    },
    {
        "name": "Cửa hàng xăng dầu Vị Xuyên",
        "address": "TT Vị Xuyên - Vị Xuyên",
        "phone": "02193826217",
        "location": {
            "lat": 22.6646052,
            "lng": 104.9680914
        }
    },
    {
        "name": "Cửa hàng xăng dầu Tân Quang",
        "address": "Xã Tân Quang - Bắc Quang",
        "phone": "02193827102",
        "location": {
            "lat": 22.4905485,
            "lng": 104.873842
        }
    },
    {
        "name": "Cửa hàng xăng dầu Bắc Quang",
        "address": "TT Việt Quang - Băc Quang",
        "phone": "02193822761",
        "location": {
            "lat": 22.4177717,
            "lng": 104.8104424
        }
    },
    {
        "name": "Cửa hàng xăng dầu Bắc Mê",
        "address": "TT Yên Phú - Bắc Mê",
        "phone": "02193841436",
        "location": {
            "lat": 22.7615314,
            "lng": 105.348246
        }
    },
    {
        "name": "Cửa hàng xăng dầu Hoàng Su Phì",
        "address": "TTVinh Quang - Hoàng Su Phì",
        "phone": "02193831001",
        "location": {
            "lat": 22.741261,
            "lng": 104.6791893
        }
    },
    {
        "name": "Cửa hàng xăng dầu Vĩnh Tuy",
        "address": "TT Vĩnh Tuy - Bắc Quang",
        "phone": "02193824113",
        "location": {
            "lat": 22.261564,
            "lng": 104.8950863
        }
    },
    {
        "name": "Cửa hàng xăng dầu Yên Minh",
        "address": "TT Yên Minh - Yên Minh",
        "phone": "02193852110",
        "location": {
            "lat": 23.1185238,
            "lng": 105.1555046
        }
    },
    {
        "name": "Cửa hàng xăng dầu Việt lâm",
        "address": "Xã Việt Lâm - Vị Xuyên",
        "phone": "02193828406",
        "location": {
            "lat": 22.6563057,
            "lng": 104.9330448
        }
    },
    {
        "name": "Cửa hàng xăng dầu Pắc Há",
        "address": "Xã Quang Minh - Bắc Quang",
        "phone": "02193897520",
        "location": {
            "lat": 22.411227,
            "lng": 104.8804893
        }
    },
    {
        "name": "Cửa hàng xăng dầu Quang Trung",
        "address": "P.Quang Trung - TP Hà Giang",
        "phone": "02193810264",
        "location": {
            "lat": 22.8389832,
            "lng": 104.9680914
        }
    },
    {
        "name": "Cửa hàng xăng dầu Đồng Văn",
        "address": "TT Đồng Văn - Đồng Văn",
        "phone": "02193856504",
        "location": {
            "lat": 23.2781471,
            "lng": 105.3627336
        }
    },
    {
        "name": "Cửa hàng xăng dầu Đồng Yên",
        "address": "Xã Đồng Yên - Bắc Quang",
        "phone": "02193890138",
        "location": {
            "lat": 22.1872392,
            "lng": 104.7871004
        }
    },
    {
        "name": "Cửa hàng xăng dầu Làng Vàng",
        "address": "TT Vị Xuyên - Vị Xuyên",
        "phone": "02193825747",
        "location": {
            "lat": 22.6646052,
            "lng": 104.9680914
        }
    },
    {
        "name": "Cửa hàng xăng dầu Tam Sơn",
        "address": "TT Tam Sơn - Quản Bạ",
        "phone": "02193846779",
        "location": {
            "lat": 23.0703183,
            "lng": 104.9797753
        }
    },
    {
        "name": "Cửa hàng xăng dầu Hùng An",
        "address": "Xã Hùng An - Bắc Quang",
        "phone": "02193892427",
        "location": {
            "lat": 22.3499795,
            "lng": 104.8512993
        }
    },
    {
        "name": "Cửa hàng xăng dầu Mèo Vạc",
        "address": "TT Mèo Vạc - Mèo Vạc",
        "phone": "02193871602",
        "location": {
            "lat": 23.1556005,
            "lng": 105.4126652
        }
    },
    {
        "name": "Cửa hàng xăng dầu Thanh Thủy",
        "address": "Xã Thanh Thuỷ - Vị Xuyên",
        "phone": "02193882114",
        "location": {
            "lat": 22.8996599,
            "lng": 104.8804893
        }
    },
    {
        "name": "Cửa hàng xăng dầu Quang Bình",
        "address": "Xã Yên Bình - Quang Bình",
        "phone": "02193820768",
        "location": {
            "lat": 22.4086337,
            "lng": 104.5946633
        }
    },
    {
        "name": "Cửa hàng xăng dầu Cầu Trì",
        "address": "TT Vĩnh Tuy - Bắc Quang",
        "phone": "02193824842",
        "location": {
            "lat": 22.261564,
            "lng": 104.8950863
        }
    },
    {
        "name": "Cửa hàng xăng dầu Nà Chì",
        "address": "Xã Nà Chì - Xín Mần",
        "phone": "02193838162",
        "location": {
            "lat": 22.5410346,
            "lng": 104.4839765
        }
    },
    {
        "name": "Cửa hàng xăng dầu Liên Hiệp",
        "address": "Xã Liên hiệp - Bắc Quang",
        "phone": "02193818233",
        "location": {
            "lat": 22.3747848,
            "lng": 105.0206757
        }
    },
    {
        "name": "Cửa hàng Xăng dầu Cốc Pài",
        "address": "Thị trấn Cốc Pài - Xín Mần",
        "phone": "02193836858",
        "location": {
            "lat": 22.6903377,
            "lng": 104.4432179
        }
    },
    {
        "name": "Cửa hàng xăng dầu Thông Nguyên",
        "address": "",
        "phone": "",
        "location": {
            "lat": null,
            "lng": null
        }
    },
    {
        "name": "Cửa Hàng Xăng dầu Minh Ngọc",
        "address": "Xã Minh Ngọc, Huyện Bắc Mê, Tỉnh Hà Giang",
        "phone": "",
        "location": {
            "lat": 22.754259,
            "lng": 105.1843801
        }
    },
    {
        "name": "Cửa hàng xăng dầu số 01",
        "address": "P. Sông Bằng, TP. Cao Bằng, T. Cao Bằng",
        "phone": "0263853574",
        "location": {
            "lat": 22.6681427,
            "lng": 106.2609328
        }
    },
    {
        "name": "Cửa hàng xăng dầu số 03",
        "address": "P. Sông Hiến, TP Cao Bằng, T. Cao Bằng",
        "phone": "0263852178",
        "location": {
            "lat": 22.6638635,
            "lng": 106.2316216
        }
    },
    {
        "name": "Cửa hàng xăng dầu số 07",
        "address": "TTr. Đông Khê, H. Thạch An, T. Cao Bằng",
        "phone": "0263840253",
        "location": {
            "lat": 22.4220178,
            "lng": 106.4435319
        }
    },
    {
        "name": "Cửa hàng xăng dầu số 08",
        "address": "TTr. Hùng Quốc, H. Trà Lĩnh, T. Cao Bằng",
        "phone": "0263880296",
        "location": {
            "lat": 22.8533627,
            "lng": 106.3287199
        }
    },
    {
        "name": "Cửa hàng xăng dầu số 10",
        "address": "TTr. Bảo Lạc, H. Bảo Lạc, T. Cao Bằng",
        "phone": "0263870517",
        "location": {
            "lat": 22.9429885,
            "lng": 105.6823124
        }
    },
    {
        "name": "Cửa hàng xăng dầu số 12",
        "address": "Xã Bạch Đằng, H. Hòa An, T. Cao Bằng",
        "phone": "",
        "location": {
            "lat": 22.5982306,
            "lng": 106.1735323
        }
    },
    {
        "name": "Cửa hàng xăng dầu số 15",
        "address": "TTr. Pác Miầu, H. Bảo Lâm, T. Cao Bằng",
        "phone": "0263885498",
        "location": {
            "lat": 22.8225495,
            "lng": 105.494688
        }
    },
    {
        "name": "Cửa hàng xăng dầu số 19",
        "address": "P. Duyệt Trung, TP Cao Bằng, T. Cao Bằng",
        "phone": "0263955019",
        "location": {
            "lat": 22.6372042,
            "lng": 106.293406
        }
    },
    {
        "name": "Cửa hàng xăng dầu số 20",
        "address": "TTr. Tĩnh Túc, H. Nguyên Bình, T. Cao Bằng",
        "phone": "0263871720",
        "location": {
            "lat": 22.6446293,
            "lng": 105.8818766
        }
    },
    {
        "name": "Cửa hàng xăng dầu số 22",
        "address": "TTr. Tà Lùng, H. Phục Hòa, T. Cao Bằng",
        "phone": "0263824109",
        "location": {
            "lat": 22.4919891,
            "lng": 106.5760857
        }
    },
    {
        "name": "Cửa hàng xăng dầu số 23",
        "address": "TTr. Hòa Thuận, H. Phục Hòa, T. Cao Bằng",
        "phone": "0263822823",
        "location": {
            "lat": 22.5328683,
            "lng": 106.5171626
        }
    },
    {
        "name": "Cửa hàng xăng dầu số 24",
        "address": "Xã Nguyễn Huệ, H. Hòa An, T. Cao Bằng",
        "phone": "0263829686",
        "location": {
            "lat": 22.7169823,
            "lng": 106.3051766
        }
    },
    {
        "name": "Cửa hàng xăng dầu số 25",
        "address": "Xã Thông Huề, H. Trùng Khánh, T. Cao Bằng",
        "phone": "0263829116",
        "location": {
            "lat": 22.7682371,
            "lng": 106.4987525
        }
    },
    {
        "name": "Cửa hàng xăng dầu số 26",
        "address": "Xã Ngọc Côn, H. Trùng Khánh, T. Cao Bằng",
        "phone": "",
        "location": {
            "lat": 22.9119081,
            "lng": 106.5407299
        }
    },
    {
        "name": "Cửa hàng xăng dầu số 27",
        "address": "Thị trấn Quảng Uyên, huyện Quảng Uyên, Tỉnh Cao Bằng",
        "phone": "",
        "location": {
            "lat": 22.6925394,
            "lng": 106.4420595
        }
    },
    {
        "name": "Cửa hàng xăng dầu số 1",
        "address": "Phường Quyết Tiến-TP Lai Châu- Tỉnh Lai Châu",
        "phone": "02313877079",
        "location": {
            "lat": 22.3978654,
            "lng": 103.4427454
        }
    },
    {
        "name": "Cửa hàng xăng dầu số 2",
        "address": "Phường Tân Phong-TP Lai Châu- Tỉnh Lai Châu",
        "phone": "02313876817",
        "location": {
            "lat": 22.3879997,
            "lng": 103.4714087
        }
    },
    {
        "name": "Cửa hàng xăng dầu số 3 - Tam Đường",
        "address": "TT Tam Đường- Huyện Tam Đường-Tỉnh Lai Châu",
        "phone": "02313879118",
        "location": {
            "lat": 22.3316943,
            "lng": 103.6189078
        }
    },
    {
        "name": "Cửa hàng xăng dầu số 4 - Phong Thổ",
        "address": "TT Phong Thổ- Huyện Phong Thổ- Tỉnh Lai Châu",
        "phone": "02313896321",
        "location": {
            "lat": 22.5279421,
            "lng": 103.3009828
        }
    },
    {
        "name": "Cửa hàng xăng dầu số 5 - Sìn Hồ",
        "address": "TT Sìn Hồ- Huyện Sìn Hồ- Tỉnh Lai Châu",
        "phone": "02313870292",
        "location": {
            "lat": 22.3577742,
            "lng": 103.2493721
        }
    },
    {
        "name": "Cửa hàng xăng dầu số 6 - Mường Tè",
        "address": "TT Mường Tè- Huyện Mường Tè -Tỉnh Lai Châu",
        "phone": "02313881260",
        "location": {
            "lat": 22.3750231,
            "lng": 102.8112253
        }
    },
    {
        "name": "Cửa hàng xăng dầu số 7- Than Uyên",
        "address": "TT Than Uyên-Huyện Than Uyên - Tỉnh Lai Châu",
        "phone": "02313785528",
        "location": {
            "lat": 21.958688,
            "lng": 103.8854007
        }
    },
    {
        "name": "Cửa hàng xăng dầu số 8 - Tân Uyên",
        "address": "TT Tân Uyên- Huyện Tân Uyên - Tỉnh Lai Châu",
        "phone": "02313786038",
        "location": {
            "lat": 22.1755538,
            "lng": 103.7723663
        }
    },
    {
        "name": "Cửa hàng xăng dầu số 9 - Mường Kim",
        "address": "Xã Mường Kim- Than Uyên- Lai Châu",
        "phone": "02313784789",
        "location": {
            "lat": 21.8736364,
            "lng": 103.8564085
        }
    },
    {
        "name": "Cửa hàng xăng dầu số 10",
        "address": "Phường Tân Phong-TP Lai Châu- Tỉnh Lai Châu",
        "phone": "02313791488",
        "location": {
            "lat": 22.3879997,
            "lng": 103.4714087
        }
    },
    {
        "name": "Cửa hàng xăng dầu số 12 - Pa Tần",
        "address": "Xã Pa Tần- Sìn Hồ- Lai Châu",
        "phone": "02313874353",
        "location": {
            "lat": 22.4712109,
            "lng": 103.139435
        }
    },
    {
        "name": "Cửa hàng xăng dầu số 13 - Mường Than",
        "address": "Xã Mường Than- Than Uyên - Lai Châu",
        "phone": "02313783699",
        "location": {
            "lat": 22.0320904,
            "lng": 103.9223747
        }
    },
    {
        "name": "Cửa hàng xăng dầu Nậm Hàng",
        "address": "TT Nậm Nhùn-Nậm Nhùn -Lai Châu",
        "phone": "02313604668",
        "location": {
            "lat": 22.3530893,
            "lng": 103.247888
        }
    },
    {
        "name": "Cửa hàng xăng dầu số 15",
        "address": "Phường Tân Phong-TP Lai Châu- Tỉnh Lai Châu",
        "phone": "02313795468",
        "location": {
            "lat": 22.3879997,
            "lng": 103.4714087
        }
    },
    {
        "name": "Cửa hàng xăng dầu số 16 - Ma Lù Thàng",
        "address": "Ma Lù Thàng- Phong Thổ - Lai Châu",
        "phone": "02313911357",
        "location": {
            "lat": 22.605672,
            "lng": 103.1661048
        }
    },
    {
        "name": "Cửa hàng xăng dầu số 18",
        "address": "Xã San Thàng-TP Lai Châu- Tỉnh Lai Châu",
        "phone": "02313875168",
        "location": {
            "lat": 22.389907,
            "lng": 103.5050151
        }
    },
    {
        "name": "Cửa hàng xăng dầu số 40 - Nậm Tăm",
        "address": "Xã Nậm Tăm- Sìn Hồ - Lai Châu",
        "phone": "02313603669",
        "location": {
            "lat": 22.2845303,
            "lng": 103.416501
        }
    },
    {
        "name": "CHXD số 43 - Đông Phong",
        "address": "Phường Đông Phong- TP Lai Châu- Tỉnh Lai Châu",
        "phone": "",
        "location": {
            "lat": 22.4418542,
            "lng": 103.4649053
        }
    },
    {
        "name": "Cửa hàng xăng dầu số 22 - Bản Bo",
        "address": "Xã Bản Bo- Huyện Tam Đường- Tỉnh Lai Châu",
        "phone": "",
        "location": {
            "lat": 22.2837589,
            "lng": 103.6760721
        }
    },
    {
        "name": "Cửa hàng xăng dầu số 21",
        "address": "Bản Co Coóc- Xã Lùng Thàng- Huyện Sìn Hồ- Tỉnh Lai Châ",
        "phone": "",
        "location": {
            "lat": 22.3560987,
            "lng": 103.3204691
        }
    },
    {
        "name": "Cửa hàng xăng dầu Phố Mới",
        "address": "Đường Nguyễn Huệ - P.Phố Mới - TP Lào Cai - T.Lào Cai",
        "phone": "0203830477",
        "location": {
            "lat": 22.4957779,
            "lng": 103.9752727
        }
    },
    {
        "name": "Cửa hàng xăng dầu Sơn Hải",
        "address": "Xã Sơn Hải- Huyện Bảo thắng - Tỉnh Lào Cai",
        "phone": "0203868366",
        "location": {
            "lat": 22.3447034,
            "lng": 104.1407948
        }
    },
    {
        "name": "Cửa hàng xăng dầu Phố Lu",
        "address": "TT.Phố Lu - H Bảo Thắng - Tỉnh Lào Cai",
        "phone": "0203862374",
        "location": {
            "lat": 22.3217635,
            "lng": 104.1858272
        }
    },
    {
        "name": "Cửa hàng xăng dầu Bát Xát",
        "address": "TT Bát Xát - H.Bát Xát - tỉnh Lào Cai",
        "phone": "0203883146",
        "location": {
            "lat": 22.5389776,
            "lng": 103.8883003
        }
    },
    {
        "name": "Cửa hàng xăng dầu Cam Đường",
        "address": "P.Pom Hán - TP Lào Cai - tỉnh Lào Cai",
        "phone": "0203852871",
        "location": {
            "lat": 22.4153653,
            "lng": 104.0173925
        }
    },
    {
        "name": "Cửa hàng xăng dầu Bắc Ngầm",
        "address": "Xã Xuân Quang-H.Bảo Thắng - Tỉnh Lào Cai",
        "phone": "0203864378",
        "location": {
            "lat": 22.3576738,
            "lng": 104.2570364
        }
    },
    {
        "name": "Cửa hàng xăng dầu Số 39 Tằng Loỏng",
        "address": "TT Tằng Lỏong - H.Bảo Thắng - tỉnh Lào Cai",
        "phone": "0203823566",
        "location": {
            "lat": 22.2894825,
            "lng": 104.1059408
        }
    },
    {
        "name": "Cửa hàng xăng dầu Số 11",
        "address": "Đ.Minh Khai - P.Phố mới - TP Lào Cai - tỉnh Lào Cai",
        "phone": "0203835374",
        "location": {
            "lat": 22.4933196,
            "lng": 103.9740905
        }
    },
    {
        "name": "Cửa hàng xăng dầu Sapa",
        "address": "TT Sapa - Huyện Sa Pa - tỉnh Lào Cai",
        "phone": "0203871692",
        "location": {
            "lat": 22.3363608,
            "lng": 103.8437852
        }
    },
    {
        "name": "Cửa hàng xăng dầu Bắc Cường",
        "address": "Đ.Trần Hưng Đạo - P.Bắc Cường - TP Lào Cai - Tỉnh Lào Cai",
        "phone": "0203849226",
        "location": {
            "lat": 22.4634607,
            "lng": 103.9889335
        }
    },
    {
        "name": "Cửa hàng xăng dầu Kim Thành",
        "address": "P.Duyên Hải - TP Lào Cai - tỉnh Lào Cai",
        "phone": "0203824855",
        "location": {
            "lat": 22.4978735,
            "lng": 103.957908
        }
    },
    {
        "name": "Cửa hàng xăng dầu Long Phúc",
        "address": "Xã Long Phúc - H Bảo Yên - Tỉnh Lào Cai",
        "phone": "0203878202",
        "location": {
            "lat": 22.1847776,
            "lng": 104.543679
        }
    },
    {
        "name": "Cửa hàng xăng dầu Simacai",
        "address": "TT Simacai - Huyện Simacai - tỉnh Lào Cai",
        "phone": "0203796897",
        "location": {
            "lat": 22.6935359,
            "lng": 104.2802961
        }
    },
    {
        "name": "Cửa hàng xăng dầu Số 41 Gia phú",
        "address": "Thôn Hòa Lạc - xã Gia phú - H Bảo thắng - tỉnh Lào Cai",
        "phone": "0203835866",
        "location": {
            "lat": 22.3723449,
            "lng": 104.0754506
        }
    },
    {
        "name": "CHXD Số 42 Thôn Vàng",
        "address": "Thôn Vàng 1, xã xuân giao, bảo thắng, tỉnh Lào cai",
        "phone": "0203863569",
        "location": {
            "lat": 22.3484398,
            "lng": 104.1072812
        }
    },
    {
        "name": "Cửa hàng xăng dầu số 46 – Mường Khương",
        "address": "Thôn Mã Tuyển 3 - TT. Mường Khương - H.Mường Khương",
        "phone": "",
        "location": {
            "lat": 22.7675252,
            "lng": 104.1059408
        }
    },
    {
        "name": "Cửa hàng xăng dầu số 01",
        "address": "P. Him Lam - TP. Điện Biên Phủ - T. Điện Biên",
        "phone": "0230 3810172",
        "location": {
            "lat": 21.4065102,
            "lng": 103.0328135
        }
    },
    {
        "name": "Cửa hàng xăng dầu số 02",
        "address": "P. Him Lam - TP. Điện Biên Phủ - T. Điện Biên",
        "phone": "0230 3810682",
        "location": {
            "lat": 21.4065102,
            "lng": 103.0328135
        }
    },
    {
        "name": "Cửa hàng xăng dầu số 03",
        "address": "P. Thanh Bình - TP. Điện Biên Phủ - T. Điện Biên",
        "phone": "0230 3827384",
        "location": {
            "lat": 21.4042724,
            "lng": 103.0054527
        }
    },
    {
        "name": "Cửa hàng xăng dầu số 04",
        "address": "P. Nam Thanh - TP. Điện Biên Phủ - T. Điện Biên",
        "phone": "",
        "location": {
            "lat": 21.3723164,
            "lng": 103.0212924
        }
    },
    {
        "name": "Cửa hàng xăng dầu số 05",
        "address": "Bản Phủ - H. Điện Biên - T. Điện Biên",
        "phone": "0230 3951097",
        "location": {
            "lat": 21.3170626,
            "lng": 103.0099475
        }
    },
    {
        "name": "Cửa hàng xăng dầu số 06",
        "address": "TT Tuần Giáo - H. Tuần Giáo - T. Điện Biên",
        "phone": "",
        "location": {
            "lat": 21.5875872,
            "lng": 103.4191322
        }
    },
    {
        "name": "Cửa hàng xăng dầu số 07",
        "address": "P. Na lay - TX. Mường Lay - T. Điện Biên",
        "phone": "0230 8500119",
        "location": {
            "lat": 22.0321571,
            "lng": 103.145201
        }
    },
    {
        "name": "Cửa hàng xăng dầu số 08",
        "address": "TT. Mường CHà - H. Mường Chà - T. Điện Biên",
        "phone": "0230 3842166",
        "location": {
            "lat": 21.7560657,
            "lng": 103.0875535
        }
    },
    {
        "name": "Cửa hàng xăng dầu số 09",
        "address": "TT. Mường Ẳng - H. Mường Ẳng - T. Điện Biên",
        "phone": "0230 3865202",
        "location": {
            "lat": 21.526371,
            "lng": 103.217298
        }
    },
    {
        "name": "Cửa hàng xăng dầu số 10",
        "address": "TT. Điện Biên Đông - H. Điện Biên Đông - T. Điện Biên",
        "phone": "",
        "location": {
            "lat": 21.2975861,
            "lng": 103.2251698
        }
    },
    {
        "name": "Cửa hàng xăng dầu số 11",
        "address": "TT. Tủa Chùa - H. Tủa Chùa - T. Điện Biên",
        "phone": "0230 3845192",
        "location": {
            "lat": 21.856289,
            "lng": 103.3413048
        }
    },
    {
        "name": "Cửa hàng xăng dầu số 12",
        "address": "Xã Quài Cang - H. Tuần Giáo - T. Điện Biên",
        "phone": "0230 3860005",
        "location": {
            "lat": 21.6300704,
            "lng": 103.416501
        }
    },
    {
        "name": "Cửa hàng xăng dầu số 13",
        "address": "P. Thanh Trường - TP. Điện Biên Phủ - T. Điện Biên",
        "phone": "",
        "location": {
            "lat": 21.4033746,
            "lng": 102.9982535
        }
    },
    {
        "name": "Cửa hàng xăng dầu số 14",
        "address": "Xã Thanh Yên - H. Điện Biên - T. Điện Biên",
        "phone": "",
        "location": {
            "lat": 21.3439722,
            "lng": 102.97234
        }
    },
    {
        "name": "Cửa hàng xăng dầu số 16",
        "address": "Xã Quài Tở - H. Tuần Giáo - T. Điện Biên",
        "phone": "0230 3860989",
        "location": {
            "lat": 21.5561737,
            "lng": 103.4627375
        }
    },
    {
        "name": "Cửa hàng xăng dầu số 21",
        "address": "Xã Thanh Minh - TP. Điện Biên Phủ - T. Điện Biên",
        "phone": "",
        "location": {
            "lat": 21.4312455,
            "lng": 103.052978
        }
    },
    {
        "name": "Cửa hàng xăng dầu số 22",
        "address": "Xã Sam Mứn - H. Điện Biên - T. Điện Biên",
        "phone": "0230 3950800",
        "location": {
            "lat": 21.2656703,
            "lng": 103.0011331
        }
    },
    {
        "name": "Cửa hàng xăng dầu số 23",
        "address": "P. Na Lay - TX. Mường Lay - T. Điện Biên",
        "phone": "",
        "location": {
            "lat": 22.0321571,
            "lng": 103.145201
        }
    },
    {
        "name": "Cửa hàng xăng dầu Mường Thanh",
        "address": "P. Mường Thanh - TP. Điện Biên Phủ - T. Điện Biên",
        "phone": "",
        "location": {
            "lat": 21.3834029,
            "lng": 103.0157331
        }
    },
    {
        "name": "Cửa hàng xăng dầu số 25",
        "address": "H.Mường Ẳng - T. Điện Biên",
        "phone": "0230.3865195",
        "location": {
            "lat": 21.5205242,
            "lng": 103.217298
        }
    },
    {
        "name": "Cửa hàng xăng dầu Ỷ La",
        "address": "Đường Trường Chinh, tổ 21 phường Tân Hà, TP. Tuyên Quang, tỉnh Tuyên Quang",
        "phone": "3822777",
        "location": {
            "lat": 21.8204887,
            "lng": 105.1901972
        }
    },
    {
        "name": "Cửa hàng xăng dầu Thắng Quân",
        "address": "KM 9, xã Thắng Quân, huyện Yên Sơn, tỉnh Tuyên Quang",
        "phone": "3890224",
        "location": {
            "lat": 21.8775414,
            "lng": 105.1785307
        }
    },
    {
        "name": "Cửa hàng xăng dầu Xuân Hòa",
        "address": "Đường Phan Đình Phùng, tổ 01, phường Minh Xuân, TP. Tuyên Quang, tỉnh Tuyên Quang",
        "phone": "3811071",
        "location": {
            "lat": 21.8187052,
            "lng": 105.2101924
        }
    },
    {
        "name": "Cửa hàng xăng dầu Hàm Yên",
        "address": "Khu Tân Yên, Thị trấn Tân Yên, huyện Hàm Yên, tỉnh Tuyên Quang",
        "phone": "3843280",
        "location": {
            "lat": 22.0422603,
            "lng": 105.0352497
        }
    },
    {
        "name": "Cửa hàng xăng dầu Sơn Dương",
        "address": "Tổ nhân dân Đoàn Kết, thị trấn Sơn Dương, huyện Sơn Dương, tỉnh Tuyên Quang",
        "phone": "3835257",
        "location": {
            "lat": 21.6939553,
            "lng": 105.4009508
        }
    },
    {
        "name": "Cửa hàng xăng dầu Chiêm Hóa",
        "address": "Tổ Luộc 4, thị trấn Vĩnh Lộc, huyện Chiêm Hóa, tỉnh Tuyên Quang",
        "phone": "3855868",
        "location": {
            "lat": 22.1475444,
            "lng": 105.2721456
        }
    },
    {
        "name": "Cửa hàng xăng dầu Nông Tiến",
        "address": "Đường Tân Trào, phường Nông Tiến, TP Tuyên Quang, tỉnh Tuyên Quang",
        "phone": "3821950",
        "location": {
            "lat": 21.8148192,
            "lng": 105.2222368
        }
    },
    {
        "name": "Cửa hàng xăng dầu Bình Thuận",
        "address": "Thôn An Hòa 1, xã An Tường, TP Tuyên Quang, tỉnh Tuyên Quang",
        "phone": "3872665",
        "location": {
            "lat": 21.7315474,
            "lng": 105.2458569
        }
    },
    {
        "name": "Cửa hàng xăng dầu Thái Hòa",
        "address": "Thôn Cây Chanh, xã Thái Hòa, huyện Hàm Yên, tỉnh Tuyên Quang",
        "phone": "3845290",
        "location": {
            "lat": 21.9770997,
            "lng": 105.1083542
        }
    },
    {
        "name": "Cửa hàng xăng dầu Kỳ Lâm",
        "address": "Thôn Kỳ Lâm, thị trấn Sơn Dương, huyện Sơn Dương, tỉnh Tuyên Quang",
        "phone": "3835443",
        "location": {
            "lat": 21.6939553,
            "lng": 105.4009508
        }
    },
    {
        "name": "Cửa hàng xăng dầu Mỹ Bằng",
        "address": "Thôn Lập thành, xã Mỹ Bằng, huyện Yên Sơn, tỉnh Tuyên Quang",
        "phone": "3875401",
        "location": {
            "lat": 21.7468045,
            "lng": 105.0900924
        }
    },
    {
        "name": "Cửa hàng xăng dầu Lưỡng Vượng",
        "address": "Thôn Phó Bể, xã Lưỡng Vượng, TP Tuyên Quang, tỉnh Tuyên Quang",
        "phone": "3871242",
        "location": {
            "lat": 21.7766403,
            "lng": 105.2280485
        }
    },
    {
        "name": "Cửa hàng xăng dầu Số 15",
        "address": "Thôn Trầm Ân, xã Thắng Quân, huyện Yên Sơn, tỉnh Tuyên Quang",
        "phone": "3891359",
        "location": {
            "lat": 21.8775414,
            "lng": 105.1785307
        }
    },
    {
        "name": "Cửa hàng xăng dầu Thái Sơn",
        "address": "Thôn 2, xã Thái Sơn, huyện Hàm Yên, tỉnh Tuyên Quang",
        "phone": "3845973",
        "location": {
            "lat": 22.0194275,
            "lng": 105.0908147
        }
    },
    {
        "name": "Cửa hàng xăng dầu Bình Xa",
        "address": "Thôn Tân Bình 2, xã Bình Xa, huyện Hàm Yên, tỉnh Tuyên Quang",
        "phone": "3845965",
        "location": {
            "lat": 22.0573662,
            "lng": 105.1200482
        }
    },
    {
        "name": "Cửa hàng xăng dầu Trung Môn",
        "address": "Xóm 10, xã Trung Môn, huyện Yên Sơn, tỉnh Tuyên Quang",
        "phone": "3891797",
        "location": {
            "lat": 21.820531,
            "lng": 105.1668326
        }
    },
    {
        "name": "Cửa hàng xăng dầu Xuân Quang",
        "address": "Xã Xuân Quang, huyện Chiêm Hóa, tỉnh Tuyên Quang",
        "phone": "3855676",
        "location": {
            "lat": 22.1866115,
            "lng": 105.2736087
        }
    },
    {
        "name": "Cửa hàng xăng dầu Minh Dân",
        "address": "Thôn Lâm Tiến, xã Minh Dân, huyện Hàm Yên, tỉnh Tuyên Quang",
        "phone": "3740168",
        "location": {
            "lat": 22.1856881,
            "lng": 104.9914601
        }
    },
    {
        "name": "Cửa hàng xăng dầu Xuân Vân",
        "address": "Thôn Đô Thượng 4, xã Xuân Vân, huyện Yên Sơn, tỉnh Tuyên Quang",
        "phone": "3507377",
        "location": {
            "lat": 21.9364977,
            "lng": 105.2311827
        }
    },
    {
        "name": "Cửa hàng xăng dầu Hòa Phú",
        "address": "Thôn Đồng Quán, xã Hòa Phú, huyện Chiêm Hóa, tỉnh Tuyên Quang",
        "phone": "3756118",
        "location": {
            "lat": 22.1290509,
            "lng": 105.1609838
        }
    },
    {
        "name": "Cửa hàng xăng dầu Phú Lâm",
        "address": "Thôn Ngòi Xanh 2, xã Phú Lâm, huyện Yên Sơn, tỉnh Tuyên Quang",
        "phone": "3872168",
        "location": {
            "lat": 21.769019,
            "lng": 105.1402557
        }
    },
    {
        "name": "Cửa hàng xăng dầu Na Hang",
        "address": "Thôn Ngòi Nẻ, thị trấn Na Hang, huyện Na Hang, tỉnh Tuyên Quang",
        "phone": "3865666",
        "location": {
            "lat": 22.3622017,
            "lng": 105.3950939
        }
    },
    {
        "name": "Cửa hàng xăng dầu Lâm Bình",
        "address": "Bản Chùa, xã Lăng Can, huyện Lâm Bình, tỉnh Tuyên Quang",
        "phone": "3868868",
        "location": {
            "lat": 22.4580076,
            "lng": 105.2297199
        }
    },
    {
        "name": "Cửa hàng xăng dầu Phúc ứng",
        "address": "Thôn Khuôn Thê, xã Phúc ứng, huyện Sơn Dương, tỉnh Tuyên Quang",
        "phone": "3838586",
        "location": {
            "lat": 21.6624361,
            "lng": 105.3658125
        }
    },
    {
        "name": "Cửa hàng xăng dầu Phú Lương",
        "address": "Thôn Gia Cát, xã Phú Lương, huyện Sơn Dương, tỉnh Tuyên Quang",
        "phone": "3732555",
        "location": {
            "lat": 21.5515613,
            "lng": 105.3716684
        }
    },
    {
        "name": "Cửa hàng xăng dầu Minh Xuân",
        "address": "Tổ 35 phường Minh Xuân, TP.Tuyên Quang, tỉnh Tuyên Quang",
        "phone": "3818373",
        "location": {
            "lat": 21.813107,
            "lng": 105.2109095
        }
    },
    {
        "name": "Cửa hàng xăng dầu Ninh Lai",
        "address": "xã Ninh Lai, huyện Sơn Dương, tỉnh Tuyên Quang",
        "phone": "3833225",
        "location": {
            "lat": 21.5457643,
            "lng": 105.494688
        }
    },
    {
        "name": "Cửa hàng xăng dầu Tam Đa",
        "address": "xã Tam Đa, huyện Sơn Dương, tỉnh Tuyên Quang",
        "phone": "3734058",
        "location": {
            "lat": 21.5368878,
            "lng": 105.3423909
        }
    },
    {
        "name": "Cửa hàng xăng dầu Hồng Lạc",
        "address": "Thôn gò Đình, xã Hồng Lạc, H. Sơn Dương- Tỉnh Tuyên Quang",
        "phone": "",
        "location": {
            "lat": 21.55767,
            "lng": 105.28086
        }
    },
    {
        "name": "Cửa hàng xăng dầu số 30",
        "address": "Tổ 17 thị trấn Na Hang huyện Na Hang,Tuyên Quang",
        "phone": "",
        "location": {
            "lat": 22.3622017,
            "lng": 105.3950939
        }
    },
    {
        "name": "Cửa hàng xăng dầu Trung Sơn",
        "address": "Thôn Lâm Sơn xã Trung Sơn- Huyện Yên Sơn -tỉnh Tuyên Quang",
        "phone": "",
        "location": {
            "lat": 21.875644,
            "lng": 105.4287738
        }
    },
    {
        "name": "Cửa hàng xăng dầu Vinh Quang",
        "address": "Thôn Phố Chinh , xã Vinh Quang huyện Chiêm Hóa Tỉnh Tuyên Quang",
        "phone": "",
        "location": {
            "lat": 22.0924803,
            "lng": 105.3014109
        }
    },
    {
        "name": "Cửa hàng xăng dầu Tân Trào",
        "address": "Thôn Bòng, xã Tân Trào - Huyện Sơn Dương -tỉnh Tuyên Quang",
        "phone": "",
        "location": {
            "lat": 21.772655,
            "lng": 105.4434192
        }
    },
    {
        "name": "Cửa hàng xăng dầu Thượng Lâm",
        "address": "xã Thượng Lâm, Huyện Lâm Bình, Tỉnh Tuyên Quang",
        "phone": "",
        "location": {
            "lat": 22.4723826,
            "lng": 105.336536
        }
    },
    {
        "name": "Cửa hàng xăng dầu Hà Lang",
        "address": "xã Hà Lang, Huyện Chiêm Hóa, Tỉnh Tuyên Quang",
        "phone": "",
        "location": {
            "lat": 22.2493147,
            "lng": 105.1412457
        }
    },
    {
        "name": "Cửa hàng xăng dầu Phúc Ninh",
        "address": "xã Phúc Ninh, Huyện Yên Sơn, Tỉnh Tuyên Quang",
        "phone": "",
        "location": {
            "lat": 21.9409069,
            "lng": 105.1843801
        }
    },
    {
        "name": "Cửa hàng xăng dầu số 1",
        "address": "Phường Đồng Tâm TP Yên Bái Tỉnh Yên Bái",
        "phone": "0293853889",
        "location": {
            "lat": 21.7190744,
            "lng": 104.9126044
        }
    },
    {
        "name": "Cửa hàng xăng dầu số 2",
        "address": "Phường Yên Ninh TP Yên Bái Tỉnh Yên Bái",
        "phone": "0293856235",
        "location": {
            "lat": 21.7154218,
            "lng": 104.8894758
        }
    },
    {
        "name": "Cửa hàng xăng dầu số 3",
        "address": "Phường Nguyễn Thái Học TP Yên Bái Tỉnh Yên Bái",
        "phone": "0293867030",
        "location": {
            "lat": 21.7106985,
            "lng": 104.8773668
        }
    },
    {
        "name": "Cửa hàng xăng dầu số 6",
        "address": "Phường Hồng Hà TP Yên Bái Tỉnh Yên Bái",
        "phone": "0293863851",
        "location": {
            "lat": 21.6976918,
            "lng": 104.8761104
        }
    },
    {
        "name": "Cửa hàng xăng dầu số 9",
        "address": "Huyện Yên Bình Tỉnh Yên Bái",
        "phone": "0293885197",
        "location": {
            "lat": 21.7605878,
            "lng": 105.0615865
        }
    },
    {
        "name": "Cửa hàng Xăng dầu số 34 - Nghĩa Lộ",
        "address": "Tổ Cang Nà Phường Trung Tâm Thị xã Nghĩa Lộ Yên Bái",
        "phone": "0293870124",
        "location": {
            "lat": 21.6055985,
            "lng": 104.5087283
        }
    },
    {
        "name": "Cửa hàng xăng dầu Trấn Yên",
        "address": "Huyện Trấn Yên Tỉnh Yên Bái",
        "phone": "0293825011",
        "location": {
            "lat": 21.6160083,
            "lng": 104.798771
        }
    },
    {
        "name": "Cửa hàng xăng dầu Khánh Hòa",
        "address": "Huyện Lục Yên Tỉnh Yên Bái",
        "phone": "0293842137",
        "location": {
            "lat": 22.0900049,
            "lng": 104.705431
        }
    },
    {
        "name": "Cửa hàng xăng dầu Yên Thế",
        "address": "Thị trấn Yên Thế Huyện Lục Yên Tỉnh Yên Bái",
        "phone": "0293848858",
        "location": {
            "lat": 22.0899425,
            "lng": 104.7695962
        }
    },
    {
        "name": "Cửa hàng xăng dầu số 15",
        "address": "Huyện Yên Bình Tỉnh Yên Bái",
        "phone": "0293886813",
        "location": {
            "lat": 21.7605878,
            "lng": 105.0615865
        }
    },
    {
        "name": "Cửa hàng xăng dầu Văn Yên",
        "address": "Thị trấn Mậu A Huyện Văn Yên Tỉnh Yên Bái",
        "phone": "0293835764",
        "location": {
            "lat": 21.8783788,
            "lng": 104.6966832
        }
    },
    {
        "name": "Cửa hàng xăng dầu Đồng Khê",
        "address": "Xã Đồng Khê Huyện Văn Chấn Tỉnh Yên Bái",
        "phone": "0293874870",
        "location": {
            "lat": 21.5312275,
            "lng": 104.6412925
        }
    },
    {
        "name": "Cửa hàng xăng dầu Phù Nham",
        "address": "Xã Phù Nham Huyện Văn Chấn Tỉnh Yên Bái",
        "phone": "0293872826",
        "location": {
            "lat": 21.6231036,
            "lng": 104.5247463
        }
    },
    {
        "name": "Cửa hàng xăng dầu Văn Chấn",
        "address": "Xã Sơn Thịnh Huyện Văn Chấn Tỉnh Yên Bái",
        "phone": "0293874567",
        "location": {
            "lat": 21.5703097,
            "lng": 104.5946633
        }
    },
    {
        "name": "Cửa hàng xăng dầu Nghĩa Phúc",
        "address": "Xã Nghĩa Phúc Huyện Văn Chấn Tỉnh Yên Bái",
        "phone": "0293879994",
        "location": {
            "lat": 21.6235473,
            "lng": 104.4868883
        }
    },
    {
        "name": "Cửa hàng xăng dầu Đông Cuông",
        "address": "Xã Đông Cuông Huyện Văn Yên Tỉnh Yên Bái",
        "phone": "0293832188",
        "location": {
            "lat": 21.9534985,
            "lng": 104.6063192
        }
    },
    {
        "name": "Cửa hàng xăng dầu Liễu Đô",
        "address": "Xã Liễu Đô Huyện Lục Yên Tỉnh Yên Bái",
        "phone": "0293848655",
        "location": {
            "lat": 22.0867224,
            "lng": 104.8046066
        }
    },
    {
        "name": "Cửa hàng xăng dầu Mù Cang Chải",
        "address": "Thị Trấn Mù Cang Chải Huyện Mù Cang Chải Tỉnh Yên Bái",
        "phone": "0293878976",
        "location": {
            "lat": 21.8528313,
            "lng": 104.0836104
        }
    },
    {
        "name": "Cửa hàng xăng dầu số 27",
        "address": "Phường Hợp Minh TP Yên Bái Tỉnh Yên Bái",
        "phone": "0293712199",
        "location": {
            "lat": 21.6858025,
            "lng": 104.8629746
        }
    },
    {
        "name": "Cửa hàng số 29",
        "address": "Tổ 13 Thị trấn Yên Bình Huyện Yên Bình tỉnh Yên Bái",
        "phone": "0983694319",
        "location": {
            "lat": 21.7459652,
            "lng": 104.9680914
        }
    },
    {
        "name": "Cửa hàng xăng dầu số 30",
        "address": "Khu 2 thị trấn Trạm Tấu huyện Trạm Tấu tỉnh Yên Bái",
        "phone": "",
        "location": {
            "lat": 21.5148504,
            "lng": 104.4315746
        }
    },
    {
        "name": "Cửa hàng xăng dầu số 32",
        "address": "Bản Nà Làng xã Nghĩa Lợi thị xã Nghĩa Lộ tỉnh Yên Bái",
        "phone": "02163871678",
        "location": {
            "lat": 21.6155423,
            "lng": 104.5136745
        }
    },
    {
        "name": "Cửa hàng xăng dầu số 31 - Hán Đà",
        "address": "Thôn Tân Lập 7, xã Hán Đà, huyện Yên Bình, tỉnh Yên Bái",
        "phone": "",
        "location": {
            "lat": 21.7267924,
            "lng": 105.0498966
        }
    },
    {
        "name": "Cửa hàng xăng dầu số 01 Tân Quang",
        "address": "Xã Tân Quang - TX. Sông Công",
        "phone": "0280 3845 098",
        "location": {
            "lat": 21.483019,
            "lng": 105.8576919
        }
    },
    {
        "name": "Cửa hàng xăng dầu số 02 Quán Triều",
        "address": "Phường Quan Triều - TP. Thái nguyên",
        "phone": "0280 3844 180",
        "location": {
            "lat": 21.6104311,
            "lng": 105.8072817
        }
    },
    {
        "name": "Cửa hàng xăng dầu số 03 Sơn Cẩm",
        "address": "Xã Sơn Cẩm - H. Phú Lương",
        "phone": "0280 3844 288",
        "location": {
            "lat": 21.6330267,
            "lng": 105.7815414
        }
    },
    {
        "name": "Cửa hàng xăng dầu số 04 Đại Từ",
        "address": "Xã Hùng Sơn - H. Đại Từ",
        "phone": "0280 3824 298",
        "location": {
            "lat": 21.6472757,
            "lng": 105.6471178
        }
    },
    {
        "name": "Cửa hàng xăng dầu số 05 Gia bẩy",
        "address": "Phường Trưng Vương - TP. Thái nguyên",
        "phone": "0280 3855 573",
        "location": {
            "lat": 21.5979872,
            "lng": 105.8422401
        }
    },
    {
        "name": "Cửa hàng xăng dầu số 06 Bắc Nam",
        "address": "Phường Gia Sàng - TP. Thái nguyên",
        "phone": "0280 3855 178",
        "location": {
            "lat": 21.5772218,
            "lng": 105.8495581
        }
    },
    {
        "name": "Cửa hàng xăng dầu số 07 Gang Thép",
        "address": "Phường Trung Thành - TP. Thái nguyên",
        "phone": "0280 3832 155",
        "location": {
            "lat": 21.5371338,
            "lng": 105.8695771
        }
    },
    {
        "name": "Cửa hàng xăng dầu số 08 Phổ Yên",
        "address": "Thị trấn Ba Hàng - H. Phổ Yên",
        "phone": "0280 3863 231",
        "location": {
            "lat": 21.4138656,
            "lng": 105.8730678
        }
    },
    {
        "name": "Cửa hàng xăng dầu số 10 P.Đ.Phùng",
        "address": "Phường Phan Đình Phùng - TP. Thái nguyên",
        "phone": "0280 3854 097",
        "location": {
            "lat": 21.5869208,
            "lng": 105.8393758
        }
    },
    {
        "name": "Cửa hàng xăng dầu số 11 Sông Công",
        "address": "Phường Cải Đan - TX. Sông Công",
        "phone": "0280 3662 848",
        "location": {
            "lat": 21.4613691,
            "lng": 105.8613233
        }
    },
    {
        "name": "Cửa hàng xăng dầu số 12 Đồng Hỷ",
        "address": "Thị Trấn Chùa Hang - H. Đồng Hỷ",
        "phone": "0280 3820 207",
        "location": {
            "lat": 21.6140107,
            "lng": 105.8393578
        }
    },
    {
        "name": "Cửa hàng xăng dầu số 14 Sông Công",
        "address": "Phường Mỏ Chè - TX. Sông Công",
        "phone": "0280 3862 210",
        "location": {
            "lat": 21.4742093,
            "lng": 105.8334331
        }
    },
    {
        "name": "Cửa hàng xăng dầu số 16 Yên Lãng",
        "address": "Xã Yên Lãng - H. Đại Từ",
        "phone": "0280 3826 174",
        "location": {
            "lat": 21.6775815,
            "lng": 105.5122694
        }
    },
    {
        "name": "Cửa hàng xăng dầu số 17 Ba Cống",
        "address": "Phường Trung Thành - TP. Thái nguyên",
        "phone": "0280 3845 179",
        "location": {
            "lat": 21.5371338,
            "lng": 105.8695771
        }
    },
    {
        "name": "Cửa hàng xăng dầu số 18 Cải Đan",
        "address": "Phường Cải Đan - TX. Sông Công",
        "phone": "0280 3862 685",
        "location": {
            "lat": 21.4613691,
            "lng": 105.8613233
        }
    },
    {
        "name": "Cửa hàng xăng dầu số 19 Đại Từ",
        "address": "Thị trấn Đại Từ - H. Đại Từ",
        "phone": "0280 3824 334",
        "location": {
            "lat": 21.6356739,
            "lng": 105.6471178
        }
    },
    {
        "name": "Cửa hàng xăng dầu số 20 Phú Lương",
        "address": "Thị trấn Đu - H. Phú Lương",
        "phone": "0280 3874 105",
        "location": {
            "lat": 21.7190769,
            "lng": 105.7145801
        }
    },
    {
        "name": "Cửa hàng xăng dầu số 22 Định Hóa",
        "address": "Thị trấn Chợ Chu - H. Định Hóa",
        "phone": "0280 3878 246",
        "location": {
            "lat": 21.911506,
            "lng": 105.6441852
        }
    },
    {
        "name": "Cửa hàng xăng dầu số 23 Phú Xá",
        "address": "Phường Phú Xá - TP. Thái nguyên",
        "phone": "0280 3547 668",
        "location": {
            "lat": 21.5550253,
            "lng": 105.8525983
        }
    },
    {
        "name": "Cửa hàng xăng dầu số 24 Tân Thịnh",
        "address": "Phường Tân Thịnh - TP. Thái nguyên",
        "phone": "0280 3746 013",
        "location": {
            "lat": 21.5795065,
            "lng": 105.816367
        }
    },
    {
        "name": "Cửa hàng xăng dầu số 25 Phổ Yên",
        "address": "Thị trấn Ba Hàng - H. Phổ Yên",
        "phone": "0280 3863 375",
        "location": {
            "lat": 21.4138656,
            "lng": 105.8730678
        }
    },
    {
        "name": "Cửa hàng xăng dầu số 26 Mỏ Bạch",
        "address": "3/1 Đường Bắc Kạn - TP. Thái nguyên",
        "phone": "0280 3753 016",
        "location": {
            "lat": 21.5998458,
            "lng": 105.8331854
        }
    },
    {
        "name": "Cửa hàng xăng dầu số 27 Lương Sơn",
        "address": "Xã Lương Sơn - TP. Thái nguyên",
        "phone": "0280 3845 630",
        "location": {
            "lat": 21.5190942,
            "lng": 105.8936224
        }
    },
    {
        "name": "Cửa hàng xăng dầu số 29 Sông công",
        "address": "Phường Mỏ Chè - TX. Sông Công",
        "phone": "0280 3861 171",
        "location": {
            "lat": 21.4742093,
            "lng": 105.8334331
        }
    },
    {
        "name": "Cửa hàng xăng dầu số 50 Cam Giá",
        "address": "Phường Cam Giá - TP. Thái nguyên",
        "phone": "0280 3737 086",
        "location": {
            "lat": 21.5587645,
            "lng": 105.8730678
        }
    },
    {
        "name": "Cửa hàng xăng dầu số 51 Tiền Phong",
        "address": "Xã Khe Mo - H. Đồng Hỷ",
        "phone": "0280 3521 234",
        "location": {
            "lat": 21.6593382,
            "lng": 105.8818766
        }
    },
    {
        "name": "Cửa hàng xăng dầu số 53 Tân Long",
        "address": "Phường Tân Long - TP. Thái nguyên",
        "phone": "0280 3844 286",
        "location": {
            "lat": 21.6199351,
            "lng": 105.7952744
        }
    },
    {
        "name": "Cửa hàng xăng dầu số 54 La Hiên",
        "address": "Xã La Hiên - H. Võ Nhai",
        "phone": "0280 3729 199",
        "location": {
            "lat": 21.7037836,
            "lng": 105.9237243
        }
    },
    {
        "name": "Cửa hàng xăng dầu số 55 Lương Sơn",
        "address": "Xã Lương Sơn - TP. Thái nguyên",
        "phone": "0280 3735 958",
        "location": {
            "lat": 21.5190942,
            "lng": 105.8936224
        }
    },
    {
        "name": "Cửa hàng xăng dầu số 57 Trại Cau",
        "address": "Tổ 12,Thị Trấn Trại Cau - H. Đồng Hỷ",
        "phone": "0280 3821 981",
        "location": {
            "lat": 21.5934806,
            "lng": 105.9479561
        }
    },
    {
        "name": "Cửa hàng xăng dầu số 59 Hóa Thượng",
        "address": "Xã Hoá Thượng - H. Đồng Hỷ",
        "phone": "0280 3522 701",
        "location": {
            "lat": 21.649709,
            "lng": 105.8319653
        }
    },
    {
        "name": "Cửa hàng xăng dầu số 61 Túc Duyên",
        "address": "Phường Túc Duyên - TP. Thái nguyên",
        "phone": "0280 3855 658",
        "location": {
            "lat": 21.5950445,
            "lng": 105.8527097
        }
    },
    {
        "name": "Cửa hàng xăng dầu số 62 Thịnh Đán",
        "address": "Phường Thịnh Đán - TP. Thái nguyên",
        "phone": "0280 3648 478",
        "location": {
            "lat": 21.5676182,
            "lng": 105.809941
        }
    },
    {
        "name": "Cửa hàng xăng dầu số 63 Bình Yên",
        "address": "Xã Yên Thông - H. Định Hóa",
        "phone": "0280 3879 799",
        "location": {
            "lat": 21.8480665,
            "lng": 105.5877425
        }
    },
    {
        "name": "Cửa hàng xăng dầu số 64 Cát Nê",
        "address": "Xã Cát Nê - H. Đại Từ",
        "phone": "0280 3726 199",
        "location": {
            "lat": 21.5226521,
            "lng": 105.6764461
        }
    },
    {
        "name": "Cửa hàng xăng dầu số 66 Linh Sơn",
        "address": "Xã Linh Sơn - H. Đồng Hỷ",
        "phone": "0280 3622 166",
        "location": {
            "lat": 21.6129699,
            "lng": 105.8818766
        }
    },
    {
        "name": "Cửa hàng xăng dầu số 67 Quyết Thắng",
        "address": "Xã Quyết Thắng - TP. Thái nguyên",
        "phone": "0280 3546 300",
        "location": {
            "lat": 21.5811997,
            "lng": 105.7907062
        }
    },
    {
        "name": "Cửa hàng xăng dầu số 68 Thịnh Đức",
        "address": "Xóm Mỹ Hào - TP. Thái nguyên",
        "phone": "0280 3749 425",
        "location": {
            "lat": 21.5671559,
            "lng": 105.8252038
        }
    },
    {
        "name": "Cửa hàng xăng dầu số 69 Điềm Mặc",
        "address": "Xã Điềm Mặc - H. Định Hóa",
        "phone": "0280 3879 490",
        "location": {
            "lat": 21.8314721,
            "lng": 105.5415755
        }
    },
    {
        "name": "Cửa hàng xăng dầu số 71 Đồng Bẩm",
        "address": "Xã Đồng Bẩm - H. Đồng Hỷ",
        "phone": "0280 3522 858",
        "location": {
            "lat": 21.6061778,
            "lng": 105.8395981
        }
    },
    {
        "name": "Cửa hàng xăng dầu số 72 Đắc Sơn",
        "address": "Xã Đắc Sơn - H. Phổ Yên",
        "phone": "0280 3763 863",
        "location": {
            "lat": 21.4193156,
            "lng": 105.8466437
        }
    },
    {
        "name": "Cửa hàng xăng dầu số 75 Hồng Tiến",
        "address": "Xã Hồng Tiến - H. Phổ Yên",
        "phone": "0280 3864 282",
        "location": {
            "lat": 21.4622772,
            "lng": 105.8818766
        }
    },
    {
        "name": "Cửa hàng xăng dầu số 30 Phùng Chí Kiên",
        "address": "Phường Phùng Chí Kiên, TX Bắc Kạn, Tỉnh Bắc Kạn",
        "phone": "02813.851.888",
        "location": {
            "lat": 22.1308765,
            "lng": 105.8319653
        }
    },
    {
        "name": "Cửa hàng xăng dầu số 31 Chợ Mới",
        "address": "TT Chợ Mới, Huyện Chợ Mới, Tỉnh Bắc Kạn",
        "phone": "02813.864.053",
        "location": {
            "lat": 21.8809712,
            "lng": 105.7791327
        }
    },
    {
        "name": "Cửa hàng xăng dầu số 32 Phủ Thông",
        "address": "TT Phủ Thông, Huyện Bạch Thông, Tỉnh Bắc Kạn",
        "phone": "02813.850.012",
        "location": {
            "lat": 22.2724243,
            "lng": 105.8804085
        }
    },
    {
        "name": "Cửa hàng xăng dầu số 33 Nà Phặc",
        "address": "TT Nà Phặc, Huyện Ngân Sơn, Tỉnh Bắc Kạn",
        "phone": "02813.840.888",
        "location": {
            "lat": 22.3809008,
            "lng": 105.9112424
        }
    },
    {
        "name": "Cửa hàng xăng dầu số 34 Minh Khai",
        "address": "Phường Nguyễn Thị Minh Khai, TX Bắc Kạn, Bắc Kạn",
        "phone": "02813.871.356",
        "location": {
            "lat": 22.1542051,
            "lng": 105.8451758
        }
    },
    {
        "name": "Cửa hàng xăng dầu số 35 Ngân Sơn",
        "address": "Xã Vân Tùng, H. Ngân Sơn, Tỉnh Bắc Kạn",
        "phone": "02813.887.045",
        "location": {
            "lat": 22.4201574,
            "lng": 105.981739
        }
    },
    {
        "name": "Cửa hàng xăng dầu số 36 Nông Hạ",
        "address": "Xã Nông Hạ, Huyện Chợ Mới, Tỉnh Bắc Kạn",
        "phone": "02813.862.053",
        "location": {
            "lat": 21.9682734,
            "lng": 105.8642593
        }
    },
    {
        "name": "Cửa hàng xăng dầu số 37 Na Rỳ",
        "address": "TT Yến Lạc, Huyện Na Rỳ, Tỉnh Bắc Kạn",
        "phone": "02813.884.716",
        "location": {
            "lat": 22.2351473,
            "lng": 106.1786787
        }
    },
    {
        "name": "Cửa hàng xăng dầu số 38 Đức Xuân",
        "address": "Phường Đức Xuân, TX Bắc Kạn, Tỉnh Bắc Kạn",
        "phone": "02813.873.594",
        "location": {
            "lat": 22.1413077,
            "lng": 105.843708
        }
    },
    {
        "name": "Cửa hàng xăng dầu số 39 Chợ Đồn",
        "address": "TT Bằng Lũng, Huyện Chợ Đồn, Tỉnh Bắc Kạn",
        "phone": "02813.882.693",
        "location": {
            "lat": 22.1623468,
            "lng": 105.6002024
        }
    },
    {
        "name": "Cửa hàng xăng dầu số 40 Bộc Bố",
        "address": "Xã Bộc Bố, huyện Pác Nặm, Tỉnh Bắc Kạn",
        "phone": "02813.893.112",
        "location": {
            "lat": 22.6194565,
            "lng": 105.6705801
        }
    },
    {
        "name": "Cửa hàng xăng dầu số 42 Xuất Hóa",
        "address": "Xã Xuất Hóa, TX Bắc Kạn, Tỉnh Bắc Kạn",
        "phone": "02813.861.114",
        "location": {
            "lat": 22.1050606,
            "lng": 105.8877494
        }
    },
    {
        "name": "Cửa hàng xăng dầu số 43 Sông Cầu",
        "address": "Phường Sông Cầu, TX Bắc Kạn, Tỉnh Bắc Kạn",
        "phone": "02813.811.228",
        "location": {
            "lat": 22.1436327,
            "lng": 105.8202234
        }
    },
    {
        "name": "Cửa hàng xăng dầu số 47 Lạng San",
        "address": "Xã Lạng San, Huyện Na Rỳ, Tỉnh Bắc Kạn",
        "phone": "02813.883.195",
        "location": {
            "lat": 22.2616788,
            "lng": 106.1169299
        }
    },
    {
        "name": "Cửa hàng xăng dầu số 49 Bằng Khẩu",
        "address": "Xã Bằng Khẩu, Huyện Ngân Sơn, Tỉnh Bắc Kạn",
        "phone": "02813.877.888",
        "location": {
            "lat": 22.4281787,
            "lng": 106.0169971
        }
    },
    {
        "name": "Cửa hàng xăng dầu số 90 Ba Bể",
        "address": "Tiểu Khu I, Thị Trấn Chợ Rã, Huyện Ba Bể, Tỉnh Bắc Kạn",
        "phone": "0969656767",
        "location": {
            "lat": 22.4521065,
            "lng": 105.7497878
        }
    },
    {
        "name": "Cửa Hàng Xăng Dầu Số 91 Sông Cầu",
        "address": "Tổ 13, Phường Sông Cầu, TP Bắc Kạn, Tỉnh Bắc Kạn",
        "phone": "0988188900",
        "location": {
            "lat": 22.1461514,
            "lng": 105.8236161
        }
    },
    {
        "name": "Cửa hàng xăng dầu số 98 Pắc Co",
        "address": "Tiểu Khu 7, Thị Trấn chợ rã, Huyên Ba Bể, Tỉnh Bắc Kạn",
        "phone": "0962 256 541",
        "location": {
            "lat": 22.4521065,
            "lng": 105.7497878
        }
    },
    {
        "name": "Cửa hàng xăng dầu Lạng Giang",
        "address": "Phố Giỏ, huyện Lạng Giang, tỉnh Bắc Giang",
        "phone": "02403680357",
        "location": {
            "lat": 21.3173926,
            "lng": 106.245595
        }
    },
    {
        "name": "Cửa hàng xăng dầu Kép",
        "address": "TT Kép, huyện Lạng Giang, tỉnh Bắc Giang",
        "phone": "02403880529",
        "location": {
            "lat": 21.4072937,
            "lng": 106.2801649
        }
    },
    {
        "name": "Cửa hàng xăng dầu Bắc Giang",
        "address": "Đường Xương Giang, TP Bắc Giang",
        "phone": "02403854471",
        "location": {
            "lat": 21.2794475,
            "lng": 106.1933896
        }
    },
    {
        "name": "Cửa hàng xăng dầu Yên Mỹ",
        "address": "TT Vôi, xã Yên Mỹ, huyện Lạng Giang, tỉnh Bắc Giang",
        "phone": "02403637259",
        "location": {
            "lat": 21.3533442,
            "lng": 106.2551563
        }
    },
    {
        "name": "Cửa hàng xăng dầu Việt Yên",
        "address": "Xã Tăng Tiến, huyện Việt Yên, tỉnh Bắc Giang",
        "phone": "02403846105",
        "location": {
            "lat": 21.2595655,
            "lng": 106.1492721
        }
    },
    {
        "name": "Cửa hàng xăng dầu Hiệp Hòa",
        "address": "TT Thắng, huyện Hiệp Hoà, tỉnh Bắc Giang",
        "phone": "02403872385",
        "location": {
            "lat": 21.3553478,
            "lng": 105.9794245
        }
    },
    {
        "name": "Cửa hàng xăng dầu Tân Yên",
        "address": "TT Cao Thượng, huyện Tân Yên, tỉnh Bắc Giang",
        "phone": "02403878236",
        "location": {
            "lat": 21.3873563,
            "lng": 106.1270717
        }
    },
    {
        "name": "Cửa hàng xăng dầu Lục Nam",
        "address": "TT Đồi Ngô, huyện Lục Nam, tỉnh Bắc Giang",
        "phone": "02403884334",
        "location": {
            "lat": 21.3057815,
            "lng": 106.3846459
        }
    },
    {
        "name": "Cửa hàng xăng dầu Đức Thắng",
        "address": "xã Đức Thắng, huyện Hiệp Hoà, tỉnh Bắc Giang",
        "phone": "02403564391",
        "location": {
            "lat": 21.3610459,
            "lng": 105.9720903
        }
    },
    {
        "name": "Cửa hàng xăng dầu Tiền Phong",
        "address": "xã Tiền Phong, huyện Yên Dũng, tỉnh Bắc Giang",
        "phone": "02403860171",
        "location": {
            "lat": 21.2271652,
            "lng": 106.1845606
        }
    },
    {
        "name": "Cửa hàng xăng dầu Quang Tiến",
        "address": "xã Quang Tiến, huyện Tân Yên, tỉnh Bắc Giang",
        "phone": "02403879827",
        "location": {
            "lat": 21.4323706,
            "lng": 106.0698963
        }
    },
    {
        "name": "Cửa hàng xăng dầu Tân Mỹ",
        "address": "xã Tân Mỹ, Thành phố Bắc Giang",
        "phone": "02403857409",
        "location": {
            "lat": 21.2421493,
            "lng": 106.2014719
        }
    },
    {
        "name": "Cửa hàng xăng dầu Dĩnh Trì",
        "address": "Xã Dĩnh Trì, Thành phố Bắc Giang",
        "phone": "02403836935",
        "location": {
            "lat": 21.2876586,
            "lng": 106.2463305
        }
    },
    {
        "name": "Cửa hàng xăng dầu Thanh Sơn",
        "address": "xã Thanh Sơn, huyện Sơn Động, tỉnh Bắc Giang",
        "phone": "02403588313",
        "location": {
            "lat": 21.2010878,
            "lng": 106.7647475
        }
    },
    {
        "name": "Trạm cấp phát Nội Bộ",
        "address": "Châu Xuyên, Lê Lợi, Bắc Giang",
        "phone": "0974636866",
        "location": {
            "lat": 21.2698243,
            "lng": 106.1963954
        }
    },
    {
        "name": "Cửa hàng xăng dầu Long Sơn",
        "address": "xã Long Sơn, huyện Sơn Động, tỉnh Bắc Giang",
        "phone": "02403586904",
        "location": {
            "lat": 21.2198246,
            "lng": 106.8783167
        }
    },
    {
        "name": "Cửa hàng xăng dầu Phương Sơn",
        "address": "xã Phương Sơn, huyện Lục Nam, tỉnh Bắc Giang",
        "phone": "02403693997",
        "location": {
            "lat": 21.3058444,
            "lng": 106.3257768
        }
    },
    {
        "name": "Cửa hàng xăng dầu Mỏ Trạng",
        "address": "xã Mỏ Trạng, huyện Yên Thế, tỉnh Bắc Giang",
        "phone": "02403831856",
        "location": {
            "lat": 21.5292454,
            "lng": 106.1088542
        }
    },
    {
        "name": "Cửa hàng xăng dầu Bố Hạ",
        "address": "TT Bố Hạ, huyện Yên Thế, tỉnh Bắc Giang",
        "phone": "02403877317",
        "location": {
            "lat": 21.4443925,
            "lng": 106.1977954
        }
    },
    {
        "name": "Cửa hàng xăng dầu Bích Động",
        "address": "TT Bích Động, huyện Việt Yên, tỉnh Bắc Giang",
        "phone": "02403574781",
        "location": {
            "lat": 21.2809594,
            "lng": 106.1081103
        }
    },
    {
        "name": "Cửa hàng xăng dầu Dĩnh Kế",
        "address": "xã Dĩnh Kế, TP Bắc Giang",
        "phone": "02403559984",
        "location": {
            "lat": 21.2815841,
            "lng": 106.2198553
        }
    },
    {
        "name": "Cửa hàng xăng dầu Yên Dũng",
        "address": "TT Neo, huyện Yên Dũng, tỉnh Bắc Giang",
        "phone": "02403870232",
        "location": {
            "lat": 21.2040303,
            "lng": 106.2433886
        }
    },
    {
        "name": "Cửa hàng xăng dầu Trần Phú",
        "address": "Phường Trần Phú, TP Bắc Giang",
        "phone": "02403855807",
        "location": {
            "lat": 21.2744894,
            "lng": 106.1889721
        }
    },
    {
        "name": "Cửa hàng xăng dầu Sơn Động",
        "address": "TT An Châu, huyện Sơn Động, tỉnh Bắc Giang",
        "phone": "02403886084",
        "location": {
            "lat": 21.3360579,
            "lng": 106.8492063
        }
    },
    {
        "name": "Cửa hàng xăng dầu Nhã Nam",
        "address": "TT Nhã Nam, huyện Tân Yên, tỉnh Bắc Giang",
        "phone": "02403879108",
        "location": {
            "lat": 21.436871,
            "lng": 106.0978212
        }
    },
    {
        "name": "Cửa hàng xăng dầu Vân Sơn",
        "address": "xã Vân Sơn, huyện Sơn Động, tỉnh Bắc Giang",
        "phone": "02403599256",
        "location": {
            "lat": 21.400862,
            "lng": 106.9004472
        }
    },
    {
        "name": "Cửa hàng xăng dầu Song Mai",
        "address": "xã Song Mai, Thành phố Bắc Giang",
        "phone": "02403520594",
        "location": {
            "lat": 21.305025,
            "lng": 106.1875016
        }
    },
    {
        "name": "Cửa hàng xăng dầu Lục Ngạn",
        "address": "TT Lục Ngạn, huyện Lục Ngạn, tỉnh Bắc Giang",
        "phone": "02403883933",
        "location": {
            "lat": 21.358658,
            "lng": 106.5495683
        }
    },
    {
        "name": "Cửa hàng xăng dầu Biển Động",
        "address": "Phố Biển, xã B.Động, huyện Lục Ngạn, tỉnh Bắc Giang",
        "phone": "02403692637",
        "location": {
            "lat": 21.4354043,
            "lng": 106.676292
        }
    },
    {
        "name": "Cửa hàng xăng dầu Quế Sơn",
        "address": "xã Quế Sơn, huyện Sơn Động, tỉnh Bắc Giang",
        "phone": "02403597707",
        "location": {
            "lat": 21.4185566,
            "lng": 106.7986648
        }
    },
    {
        "name": "Cửa hàng xăng dầu số 01",
        "address": "Ngã tư QL 1A",
        "phone": "0253861579",
        "location": {
            "lat": 16.3941322,
            "lng": 107.5705807
        }
    },
    {
        "name": "Cửa hàng xăng dầu số 02",
        "address": "Đường Trần Quang Khải",
        "phone": "0253812491",
        "location": {
            "lat": 10.7919087,
            "lng": 106.6914821
        }
    },
    {
        "name": "Cửa hàng xăng dầu số 03",
        "address": "TT Na Dương",
        "phone": "0253844273",
        "location": {
            "lat": 21.6885462,
            "lng": 106.9653756
        }
    },
    {
        "name": "Cửa hàng xăng dầu số 04",
        "address": "TT Lộc Bình",
        "phone": "0253840041",
        "location": {
            "lat": 21.7653509,
            "lng": 106.9211043
        }
    },
    {
        "name": "Cửa hàng xăng dầu số 05",
        "address": "Cửa khẩu Tân Thanh",
        "phone": "0253888228",
        "location": {
            "lat": 22.0049871,
            "lng": 106.679977
        }
    },
    {
        "name": "Cửa hàng xăng dầu số 06",
        "address": "TT Đồng Mỏ",
        "phone": "0253820301",
        "location": {
            "lat": 21.6626781,
            "lng": 106.5731392
        }
    },
    {
        "name": "Cửa hàng xăng dầu số 07",
        "address": "Xã Phú Xá",
        "phone": "0253851437",
        "location": {
            "lat": 21.902899,
            "lng": 106.682188
        }
    },
    {
        "name": "Cửa hàng xăng dầu số 08",
        "address": "P. Đông Kinh",
        "phone": "0253718405",
        "location": {
            "lat": null,
            "lng": null
        }
    },
    {
        "name": "Cửa hàng xăng dầu số 09",
        "address": "QL 1A, Xã Minh Sơn",
        "phone": "0253825892",
        "location": {
            "lat": 21.4730867,
            "lng": 106.3105097
        }
    },
    {
        "name": "Cửa hàng xăng dầu số 10",
        "address": "QL 1A, Xã Vân Thuỷ",
        "phone": "0256267202",
        "location": {
            "lat": 21.752927,
            "lng": 106.7219521
        }
    },
    {
        "name": "Cửa hàng xăng dầu số 11",
        "address": "TT Thất Khê",
        "phone": "0253883291",
        "location": {
            "lat": 22.2566889,
            "lng": 106.4731314
        }
    },
    {
        "name": "Cửa hàng xăng dầu số 12",
        "address": "Xã Hoàng Đồng",
        "phone": "0253890393",
        "location": {
            "lat": 19.8396306,
            "lng": 105.8451758
        }
    },
    {
        "name": "Cửa hàng xăng dầu số 13",
        "address": "QL 1A, TT Đồng Bành",
        "phone": "0253824178",
        "location": {
            "lat": 16.3941322,
            "lng": 107.5705807
        }
    },
    {
        "name": "Cửa hàng xăng dầu số 14",
        "address": "QL 1A, Xã Quang Lang",
        "phone": "0253820821",
        "location": {
            "lat": 16.3941322,
            "lng": 107.5705807
        }
    },
    {
        "name": "Cửa hàng xăng dầu số 15",
        "address": "QL 1A xã Sơn Hà",
        "phone": "0253827544",
        "location": {
            "lat": 21.4970887,
            "lng": 106.3486436
        }
    },
    {
        "name": "Cửa hàng xăng dầu số 16",
        "address": "TT NT Thái Bình",
        "phone": "0253848041",
        "location": {
            "lat": 20.4463471,
            "lng": 106.3365828
        }
    },
    {
        "name": "Cửa hàng xăng dầu số 17",
        "address": "Xã Vạn Linh",
        "phone": "0253821947",
        "location": {
            "lat": 21.6547201,
            "lng": 106.4523662
        }
    },
    {
        "name": "Cửa hàng xăng dầu số 19",
        "address": "TT Văn Quan",
        "phone": "0253831044",
        "location": {
            "lat": 21.8628802,
            "lng": 106.5377839
        }
    },
    {
        "name": "Cửa hàng xăng dầu số 20",
        "address": "Xã Trùng Quán",
        "phone": "0253780050",
        "location": {
            "lat": 22.1195183,
            "lng": 106.5930291
        }
    },
    {
        "name": "Cửa hàng xăng dầu số 21",
        "address": "Xã Hoội Hoan",
        "phone": "0253780471",
        "location": {
            "lat": 22.0499956,
            "lng": 106.482553
        }
    },
    {
        "name": "Cửa hàng xăng dầu số 22",
        "address": "TT Bắc Sơn",
        "phone": "0253839171",
        "location": {
            "lat": 21.9072423,
            "lng": 106.3154764
        }
    },
    {
        "name": "Cửa hàng xăng dầu số 23",
        "address": "Xã Nhất Hoà",
        "phone": "0253738791",
        "location": {
            "lat": 21.7663006,
            "lng": 106.2639825
        }
    },
    {
        "name": "Cửa hàng xăng dầu số 24",
        "address": "TT Văn Quan",
        "phone": "0253831412",
        "location": {
            "lat": 21.8628802,
            "lng": 106.5377839
        }
    },
    {
        "name": "Cửa hàng xăng dầu số 25",
        "address": "Xã Văn An",
        "phone": "0253733188",
        "location": {
            "lat": 21.7571477,
            "lng": 106.8060388
        }
    },
    {
        "name": "Cửa hàng xăng dầu số 26",
        "address": "Xã Minh Tiến",
        "phone": "0253725929",
        "location": {
            "lat": 21.7374991,
            "lng": 105.5532993
        }
    },
    {
        "name": "Cửa hàng xăng dầu số 27",
        "address": "Xã Châu Sơn",
        "phone": "0253748922",
        "location": {
            "lat": 20.6382567,
            "lng": 106.2904635
        }
    },
    {
        "name": "Cửa hàng xăng dầu số 29",
        "address": "Xã Hoàng Văn Thụ",
        "phone": "0253836037",
        "location": {
            "lat": 20.8595873,
            "lng": 105.6353878
        }
    },
    {
        "name": "Cửa hàng xăng dầu số 30",
        "address": "Xã Tràng Phái",
        "phone": "0253503800",
        "location": {
            "lat": 21.7766588,
            "lng": 106.6173415
        }
    },
    {
        "name": "Cửa hàng xăng dầu số 31",
        "address": "Xã Tri Phương",
        "phone": "0253887628",
        "location": {
            "lat": 21.0821685,
            "lng": 106.0081819
        }
    },
    {
        "name": "Cửa hàng xăng dầu số 32",
        "address": "Xã Tân Tiến",
        "phone": "0253783769",
        "location": {
            "lat": 21.2526439,
            "lng": 106.2198553
        }
    },
    {
        "name": "Cửa hàng xăng dầu số 33",
        "address": "Xã Tân Thành",
        "phone": "0256271559",
        "location": {
            "lat": 11.515555,
            "lng": 106.8060388
        }
    },
    {
        "name": "Cửa hàng xăng dầu số 34",
        "address": "Xã Hiệp Hạ",
        "phone": "0253741503",
        "location": {
            "lat": 21.7224961,
            "lng": 106.8406998
        }
    },
    {
        "name": "Cửa hàng xăng dầu số 35",
        "address": "TT Đình Lập",
        "phone": "0253846710",
        "location": {
            "lat": 21.5511448,
            "lng": 107.0923331
        }
    },
    {
        "name": "Cửa hàng xăng dầu số 36",
        "address": "Xã Hồng Phong",
        "phone": "0253858417",
        "location": {
            "lat": 11.0448892,
            "lng": 108.2960593
        }
    },
    {
        "name": "Cửa hàng xăng dầu số 37",
        "address": "Xã Hồng Phong",
        "phone": "0253736571",
        "location": {
            "lat": 11.0448892,
            "lng": 108.2960593
        }
    },
    {
        "name": "Cửa hàng xăng dầu số 38",
        "address": "Xã Tú Đoạn",
        "phone": "0253842918",
        "location": {
            "lat": 21.7531564,
            "lng": 106.961686
        }
    },
    {
        "name": "Cửa hàng xăng dầu số 39",
        "address": "Xã Gia Lộc",
        "phone": "0253720062",
        "location": {
            "lat": 11.0590972,
            "lng": 106.3581527
        }
    },
    {
        "name": "CHXD số 01 - Phủ Đức",
        "address": "Phường Vân Cơ - TP Việt Trì Tỉnh Phú Thọ",
        "phone": "(0210) 3952 351",
        "location": {
            "lat": 21.3380491,
            "lng": 105.3731324
        }
    },
    {
        "name": "CHXD số 02 - Đền Hùng",
        "address": "Phường Vân Phú - TP Việt Trì Tỉnh Phú Thọ",
        "phone": "(0210) 3970 064",
        "location": {
            "lat": 21.3499823,
            "lng": 105.3541013
        }
    },
    {
        "name": "CHXD số 03 - Phù Ninh",
        "address": "TT Phong Châu Huyện Phù Ninh Tỉnh Phú Thọ",
        "phone": "(0210) 3762 396",
        "location": {
            "lat": 21.4092335,
            "lng": 105.3101915
        }
    },
    {
        "name": "CHXD số 04 - Gia Cẩm",
        "address": "Phường Gia Cẩm TP Việt Trì Tỉnh Phú Thọ",
        "phone": "(0210) 3846 038",
        "location": {
            "lat": 21.3189946,
            "lng": 105.3907014
        }
    },
    {
        "name": "CHXD số 05 - Thanh Miếu",
        "address": "Phường Thanh Miếu - TP Việt Trì Tỉnh Phú Thọ",
        "phone": "(0210) 3863 223",
        "location": {
            "lat": 21.3101833,
            "lng": 105.4229159
        }
    },
    {
        "name": "CHXD số 06 - Dữu Lâu",
        "address": "Phường Dữu Lâu - TP Việt Trì Tỉnh Phú Thọ",
        "phone": "(0210) 3940 879",
        "location": {
            "lat": 21.3371792,
            "lng": 105.3980224
        }
    },
    {
        "name": "CHXD số 07 - Lâm Thao",
        "address": "TT Lâm Thao Huyện Lâm Thao Tỉnh Phú Thọ",
        "phone": "(0210) 3825015",
        "location": {
            "lat": 21.3242951,
            "lng": 105.2867776
        }
    },
    {
        "name": "CHXD số 08 - Tam Nông",
        "address": "TT Tam Nông Huyện Tam Nông Tỉnh Phú Thọ",
        "phone": "(0210) 3794 159",
        "location": {
            "lat": 21.2572413,
            "lng": 105.2946032
        }
    },
    {
        "name": "CHXD số 09 - Phú Hộ",
        "address": "Thị trấn Phú Hộ - Tỉnh Phú Thọ",
        "phone": "(0210) 3865 192",
        "location": {
            "lat": 21.4399922,
            "lng": 105.2604409
        }
    },
    {
        "name": "CHXD số 10 - Phú Thọ",
        "address": "Phường Hùng Vương Thị xã Phú Thọ Tỉnh Phú Thọ",
        "phone": "(0210) 3820 158",
        "location": {
            "lat": 21.4052532,
            "lng": 105.2121675
        }
    },
    {
        "name": "CHXD số 11 - Đoan Hùng",
        "address": "TT. Đoan Hùng Huyện Đoan Hùng Tỉnh Phú Thọ",
        "phone": "(0210) 3653 256",
        "location": {
            "lat": 21.6303249,
            "lng": 105.1814554
        }
    },
    {
        "name": "CHXD số 12 - Thanh Ba",
        "address": "TT Thanh Ba Huyện Thanh Ba Tỉnh Phú Thọ",
        "phone": "(0210) 3885 788",
        "location": {
            "lat": 21.5062839,
            "lng": 105.1405147
        }
    },
    {
        "name": "CHXD số 14 - Thanh Thủy",
        "address": "Thị trấn La Phù H. Thanh Thủy Tỉnh Phú Thọ",
        "phone": "(0210) 3877 289",
        "location": {
            "lat": 21.1612084,
            "lng": 105.2604409
        }
    },
    {
        "name": "CHXD số 15 - Sóc Đăng",
        "address": "Sóc Đăng TT Đoan Hùng H. Đoan Hùng Tỉnh Phú Thọ",
        "phone": "(0210) 3881162",
        "location": {
            "lat": 21.6303249,
            "lng": 105.1814554
        }
    },
    {
        "name": "CHXD số 16 - Lâm Thao",
        "address": "TT. Lâm Thao Huyện Lâm Thao Tỉnh Phú Thọ",
        "phone": "(0210) 3826 912",
        "location": {
            "lat": 21.3242951,
            "lng": 105.2867776
        }
    },
    {
        "name": "CHXD số 18 - Phương Xá",
        "address": "Xã Phương Xá Huyện Cẩm Khê Tỉnh Phú Thọ",
        "phone": "(0210) 3887 527",
        "location": {
            "lat": 21.4667603,
            "lng": 105.0805842
        }
    },
    {
        "name": "CHXD số 20 - Cao Xá",
        "address": "Xã Cao Xá Huyện Lâm Thao Tỉnh Phú Thọ",
        "phone": "(0210) 3788 705",
        "location": {
            "lat": 21.293008,
            "lng": 105.3423909
        }
    },
    {
        "name": "CHXD số 21 - Bến Gót",
        "address": "Phường Bến Gót (Cảng) TP Việt Trì Tỉnh Phú Thọ",
        "phone": "(0210) 3912 355",
        "location": {
            "lat": 21.3002569,
            "lng": 105.4377232
        }
    },
    {
        "name": "CHXD số 22 - Chí Đám",
        "address": "Xã Chí Đám Huyện Đoan Hùng Tỉnh Phú Thọ",
        "phone": "(0210) 3641 538",
        "location": {
            "lat": 21.6534737,
            "lng": 105.2136302
        }
    },
    {
        "name": "CHXD số 23 - Thanh Sơn",
        "address": "Khu 3 Mễ Trì Huyện Thanh Sơn Tỉnh Phú Thọ",
        "phone": "(0210) 3612 998",
        "location": {
            "lat": 21.0240198,
            "lng": 105.1726816
        }
    },
    {
        "name": "CHXD số 24 - Thọ Sơn",
        "address": "Phường Thọ Sơn - TP Việt Trì Tỉnh Phú Thọ",
        "phone": "(0210) 3910 845",
        "location": {
            "lat": 21.3045415,
            "lng": 105.4133974
        }
    },
    {
        "name": "CHXD số 25 - Phú Lộc",
        "address": "Xã Phú Lộc Huyện Phù Ninh Tỉnh Phú Thọ",
        "phone": "(0210) 3773 132",
        "location": {
            "lat": 21.4340971,
            "lng": 105.2926308
        }
    },
    {
        "name": "CHXD số 26 - Đồng Xuân",
        "address": "Khu 4 xã Đồng Xuân - Huyện Thanh Ba - Tỉnh Phú Thọ",
        "phone": "",
        "location": {
            "lat": 21.5017582,
            "lng": 105.1315984
        }
    },
    {
        "name": "CHXD số 28 - Đào Xá",
        "address": "Xã Đào Xá Huyện Thanh thủy Tỉnh Phú Thọ",
        "phone": "(0210) 3643 119",
        "location": {
            "lat": 21.218207,
            "lng": 105.2721456
        }
    },
    {
        "name": "CHXD số 29 - Thạch Đồng",
        "address": "Xã Thạch Đồng H. Thanh Thủy Tỉnh Phú Thọ",
        "phone": "(0210) 3688 179",
        "location": {
            "lat": 21.206528,
            "lng": 105.3043378
        }
    },
    {
        "name": "CHXD số 30 - Ấm Thượng",
        "address": "Khu 2 Ấm Thượng TT Hạ Hòa Tỉnh Phú Thọ",
        "phone": "(0210) 3883 024",
        "location": {
            "lat": 21.5672496,
            "lng": 105.0148322
        }
    },
    {
        "name": "CHXD số 31 - Hiền Lương",
        "address": "Xã Hiền Lương Huyện Hạ hòa Tỉnh Phú Thọ",
        "phone": "(0210) 3683 218",
        "location": {
            "lat": 21.6038258,
            "lng": 104.9009254
        }
    },
    {
        "name": "CHXD số 32 - Vân Cơ",
        "address": "Phường Vân Cơ TP Việt Trì Tỉnh Phú Thọ",
        "phone": "(0210) 3955 234",
        "location": {
            "lat": 21.3380491,
            "lng": 105.3731324
        }
    },
    {
        "name": "CHXD số 35 - Chân Mộng",
        "address": "Xã Chân Mộng (Cầu Hai) Huyện Đoan Hùng Tỉnh Phú Thọ",
        "phone": "(0210) 3835 001",
        "location": {
            "lat": 21.5309698,
            "lng": 105.2033921
        }
    },
    {
        "name": "CHXD số 36 - Tiên Phú",
        "address": "Xã Tiên Phú Huyện Phù Ninh Tỉnh Phú Thọ",
        "phone": "(0210) 3764 009",
        "location": {
            "lat": 21.4759301,
            "lng": 105.248737
        }
    },
    {
        "name": "CHXD số 37 - Thu Cúc",
        "address": "Xã Thu Cúc Huyện Thanh Sơn Tỉnh Phú Thọ",
        "phone": "(0210) 3745 195",
        "location": {
            "lat": 21.3072159,
            "lng": 104.8688126
        }
    },
    {
        "name": "CHXD số 38 - Đồng Luận",
        "address": "Xã Đồng Luận Huyện Thanh Thủy Tỉnh Phú Thọ",
        "phone": "(0210) 3689 320",
        "location": {
            "lat": 21.0988365,
            "lng": 105.3072646
        }
    },
    {
        "name": "CHXD số 39 - Sông Thao",
        "address": "TT. Sông Thao H. Cẩm Khê Tỉnh Phú Thọ",
        "phone": "(0210) 3631 542",
        "location": {
            "lat": 21.4249322,
            "lng": 105.1405147
        }
    },
    {
        "name": "CHXD số 40 - Cầu Khánh",
        "address": "Cầu Khánh Thị trấn Thanh Sơn Tỉnh Phú Thọ",
        "phone": "(0210) 3613 588",
        "location": {
            "lat": 21.2281245,
            "lng": 105.2014301
        }
    },
    {
        "name": "CHXD số 41 - Tiêu Sơn",
        "address": "Xã Tiêu Sơn Huyện Đoan Hùng Tỉnh Phú Thọ",
        "phone": "(0210) 3651 510",
        "location": {
            "lat": 21.5637782,
            "lng": 105.1785307
        }
    },
    {
        "name": "CHXD số 42 - Chí Tiên",
        "address": "Xã Chí Tiên Huyện Thanh Ba Tỉnh Phú Thọ",
        "phone": "(0210) 3703 825",
        "location": {
            "lat": 21.4381125,
            "lng": 105.1551352
        }
    },
    {
        "name": "CHXD số 43 - Hương Cần",
        "address": "Xã Hương Cần HuyệnThanh Sơn Tỉnh Phú Thọ",
        "phone": "(0210) 3614 226",
        "location": {
            "lat": 21.0535426,
            "lng": 105.2311827
        }
    },
    {
        "name": "CHXD số 44 - Hiền Quan",
        "address": "Hiền Quan Huyện Tam Nông Tỉnh Phú Thọ",
        "phone": "(0210) 3531 512",
        "location": {
            "lat": 21.3750918,
            "lng": 105.2399596
        }
    },
    {
        "name": "CHXD số 46 - Nông Trang",
        "address": "Phường Nông Trang - TP Việt Trì Tỉnh Phú Thọ",
        "phone": "(0210) 3994 779",
        "location": {
            "lat": 21.3314246,
            "lng": 105.3819167
        }
    },
    {
        "name": "CHXD số 47 - Đồng Thịnh",
        "address": "Xã Đồng Thịnh Huyện Yên Lập Tỉnh Phú Thọ",
        "phone": "(0210) 3622 929",
        "location": {
            "lat": 21.3304619,
            "lng": 105.0615865
        }
    },
    {
        "name": "CHXD số 48 - Ngọc Lập",
        "address": "Xã Ngọc Lập Huyện Yên Lập Tỉnh Phú Thọ",
        "phone": "(0210) 3628 055",
        "location": {
            "lat": 21.244837,
            "lng": 105.1083542
        }
    },
    {
        "name": "CHXD số 49 - Chân Mộng",
        "address": "Xã Chân mộng Huyện Đoan Hùng Tỉnh Phú Thọ",
        "phone": "",
        "location": {
            "lat": 21.5288388,
            "lng": 105.2107049
        }
    },
    {
        "name": "CHXD số 50 - Võ Lao",
        "address": "Xã Võ Lao - Huyện Thanh Thanh Ba",
        "phone": "",
        "location": {
            "lat": 21.4670994,
            "lng": 105.1873049
        }
    },
    {
        "name": "CHXD số 51 - Yên Lập",
        "address": "Thị trấn Yên Lập - Huyện Yên Lập Tỉnh Phú Thọ",
        "phone": "(0210) 3952 351",
        "location": {
            "lat": 21.3537103,
            "lng": 105.0615865
        }
    },
    {
        "name": "CHXD số 52 - Yên Bái",
        "address": "Thôn Đồng Quýt - Xã Bảo Hưng - Huyện Trấn Yên - Tỉnh Yên Bái",
        "phone": "",
        "location": {
            "lat": 21.6720404,
            "lng": 104.8863279
        }
    },
    {
        "name": "CHXD số 54 - Yên Bái",
        "address": "Thôn Chiến Thắng - Xã Bảo Hưng - Huyện Trấn Yên - Tỉnh Yên Bái",
        "phone": "",
        "location": {
            "lat": 21.6720404,
            "lng": 104.8863279
        }
    },
    {
        "name": "CHXD số 55 - Bến Gót",
        "address": "Phường Bến gót - Thành phố Việt trì - Tỉnh Phú thọ",
        "phone": "",
        "location": {
            "lat": 21.2987753,
            "lng": 105.4261142
        }
    },
    {
        "name": "CHXD số 56 - Xuân Đài",
        "address": "Khu Đống Cả - Xã Xuân Đài - Huyện Tân Sơn - Tỉnh Phú thọ",
        "phone": "",
        "location": {
            "lat": 21.14448,
            "lng": 104.9973028
        }
    },
    {
        "name": "CHXD số 57 - Hòa Bình",
        "address": "Xóm Đắt II - Xã Giáp Đắt - Huyện Đà Bắc - Tỉnh Hòa Bình",
        "phone": "",
        "location": {
            "lat": 21.0303255,
            "lng": 104.9739333
        }
    },
    {
        "name": "CHXD số 58 - Thanh Miếu",
        "address": "Khu 10 Phường Thanh Miếu – TP Việt Trì - Tỉnh Phú Thọ",
        "phone": "",
        "location": {
            "lat": 21.35862,
            "lng": 105.354356
        }
    },
    {
        "name": "Cửa hàng xăng dầu số 01",
        "address": "Số 01 đường Trần Quang Khải, phường Tràng Tiền, quận Hoàn Kiếm, TP Hà nội.",
        "phone": "0439332971",
        "location": {
            "lat": 21.024087,
            "lng": 105.860456
        }
    },
    {
        "name": "Cửa hàng xăng dầu số 05",
        "address": "Số 01 phố Hàng Bún, phường Nguyễn Trung Trực, quận Ba Đình, TP Hà nội.",
        "phone": "0438290076",
        "location": {
            "lat": 21.0443426,
            "lng": 105.8459336
        }
    },
    {
        "name": "Cửa hàng xăng dầu số 06",
        "address": "Số 78 đường Bạch Đằng, phường Thanh Lương, quận Hai Bà Trưng, TP Hà nội.",
        "phone": "0438212551",
        "location": {
            "lat": 21.0033434,
            "lng": 105.8720814
        }
    },
    {
        "name": "Cửa hàng xăng dầu số 18",
        "address": "Số 625 đường Đê La Thành, phường Thành Công, quận Ba Đình, TP Hà nội.",
        "phone": "0438343930",
        "location": {
            "lat": 21.023205,
            "lng": 105.8154009
        }
    },
    {
        "name": "Cửa hàng xăng dầu số 30",
        "address": "Số 185 phố Nguyễn Lương Bằng, phường Quang Trung, quận Đống Đa, TP Hà nội.",
        "phone": "0438574062",
        "location": {
            "lat": 21.0157955,
            "lng": 105.8282941
        }
    },
    {
        "name": "Cửa hàng xăng dầu số 31",
        "address": "Số 111 đường Láng, phường Thịnh Quang, quận Đống Đa, TP Hà nội.",
        "phone": "0435623483",
        "location": {
            "lat": 21.00944,
            "lng": 105.816377
        }
    },
    {
        "name": "Cửa hàng xăng dầu số 36",
        "address": "Ngõ 2, phố Định Công Thượng, phường Định Công, quận Hoàng Mai, TP Hà nội",
        "phone": "0436400931",
        "location": {
            "lat": 20.9812596,
            "lng": 105.8213352
        }
    },
    {
        "name": "Cửa hàng xăng dầu số 41",
        "address": "Đường Nguyễn Quý Đức, phường Thanh Xuân Bắc, quận Thanh Xuân, TP Hà nội.",
        "phone": "0438542304",
        "location": {
            "lat": 20.9916147,
            "lng": 105.79988
        }
    },
    {
        "name": "Cửa hàng xăng dầu số 42",
        "address": "Số 231 đường Nguyễn Trãi, phường Thượng Đình, quận Thanh Xuân, TP Hà nội.",
        "phone": "0435588726",
        "location": {
            "lat": 20.9969284,
            "lng": 105.8117243
        }
    },
    {
        "name": "Cửa hàng xăng dầu số 43",
        "address": "Số 107 đường Nguyễn Tuân, phường Thanh Xuân Trung, quận Thanh Xuân, TP Hà nội.",
        "phone": "0435574826",
        "location": {
            "lat": 20.9975671,
            "lng": 105.8037929
        }
    },
    {
        "name": "Cửa hàng xăng dầu số 45",
        "address": "Số 362 Quang Trung, phường La Khê, quận Hà Đông, Hà Nội",
        "phone": "0433119685",
        "location": {
            "lat": 20.9636052,
            "lng": 105.7661331
        }
    },
    {
        "name": "Cửa hàng xăng dầu số 50",
        "address": "Số 01 phố Lương Yên, phường Bạch Đằng, quận Hai Bà Trưng, TP Hà nội.",
        "phone": "0438211848",
        "location": {
            "lat": 21.0128829,
            "lng": 105.8631417
        }
    },
    {
        "name": "Cửa hàng xăng dầu số 52",
        "address": "Số 32 phố Tân Mai, phường Tân Mai, quận Hoàng Mai, TP Hà nội.",
        "phone": "0436612497",
        "location": {
            "lat": 20.9833371,
            "lng": 105.8460638
        }
    },
    {
        "name": "Cửa hàng xăng dầu số 53",
        "address": "Km 06 đường Giải Phóng, phường Giáp Bát, quận Hoàng Mai, TP Hà nội.",
        "phone": "0438641224",
        "location": {
            "lat": 20.989328,
            "lng": 105.8411
        }
    },
    {
        "name": "Cửa hàng xăng dầu số 54",
        "address": "Số 658 phố Trương Định, phường Giáp Bát, quận Hoàng Mai, TP Hà nội.",
        "phone": "0438641167",
        "location": {
            "lat": 20.9937815,
            "lng": 105.8466875
        }
    },
    {
        "name": "Cửa hàng xăng dầu số 55",
        "address": "Số 121 phố Định Công, phường Định Công, quận Hoàng Mai, TP Hà nội.",
        "phone": "02436640571",
        "location": {
            "lat": 20.9836524,
            "lng": 105.837871
        }
    },
    {
        "name": "Cửa hàng xăng dầu số 56",
        "address": "Tổ 16 Giáp Nhất, phường Thịnh Liệt, quận Hoàng Mai, TP Hà nội.",
        "phone": "0436643997",
        "location": {
            "lat": 21.0063697,
            "lng": 105.8154626
        }
    },
    {
        "name": "Cửa hàng xăng dầu số 58",
        "address": "Số 421 đường Lĩnh Nam, tổ 13 phường Lĩnh Nam, quận Hoàng Mai, TP Hà nội.",
        "phone": "0436449606",
        "location": {
            "lat": 20.9817939,
            "lng": 105.8794248
        }
    },
    {
        "name": "Cửa hàng xăng dầu số 59",
        "address": "Số 85 đường Nguyễn Tam Trinh, phường Mai Động, quận Hoàng Mai, TP Hà nội.",
        "phone": "0438621008",
        "location": {
            "lat": 20.9940449,
            "lng": 105.8627907
        }
    },
    {
        "name": "Cửa hàng xăng dầu số 60",
        "address": "Số 171 đường Xuân Thủy, phường Dịch Vọng Hậu, quận Cầu Giấy, TP Hà nội.",
        "phone": "0437683119",
        "location": {
            "lat": 21.0359788,
            "lng": 105.785736
        }
    },
    {
        "name": "Cửa hàng xăng dầu số 63",
        "address": "Đường Phạm Văn Đồng, xã Xuân Đỉnh, huyện Từ Liêm, TP Hà nội.",
        "phone": "0438389693",
        "location": {
            "lat": 21.0735379,
            "lng": 105.7857893
        }
    },
    {
        "name": "Cửa hàng xăng dầu số 64",
        "address": "Km 12 Quốc lộ 32, xã Minh Khai, huyện Từ Liêm, TP Hà nội.",
        "phone": "0437636632",
        "location": {
            "lat": 21.0472689,
            "lng": 105.7452489
        }
    },
    {
        "name": "Cửa hàng xăng dầu số 65",
        "address": "Thôn Lai Xá, xã Kim Chung, Huyện Hoài Đức, Hà Nội",
        "phone": "",
        "location": {
            "lat": 21.0575925,
            "lng": 105.7263819
        }
    },
    {
        "name": "Cửa hàng xăng dầu số 66",
        "address": "Đường 70, xã Xuân Phương, huyện Từ Liêm, TP Hà nội.",
        "phone": "0437650773",
        "location": {
            "lat": 21.0034828,
            "lng": 105.7499413
        }
    },
    {
        "name": "Cửa hàng xăng dầu số 67",
        "address": "Đường Phạm Hùng, xã Mỹ Đình, huyện Từ Liêm, TP Hà nội.",
        "phone": "0437686643",
        "location": {
            "lat": 21.0175937,
            "lng": 105.7819699
        }
    },
    {
        "name": "Cửa hàng xăng dầu số 68",
        "address": "Thôn Thống Nhất, Xã Ngọc Tảo, huyện Phúc Thọ, thành phố Hà Nội",
        "phone": "0433 644 096",
        "location": {
            "lat": 21.0922169,
            "lng": 105.600294
        }
    },
    {
        "name": "Cửa hàng xăng dầu số 69",
        "address": "KM 4+700 Quốc lộ 21A, thôn Bạch Thạch, Xã Hòa Thạch, Huyện Quốc Oai, Hà Nội",
        "phone": "",
        "location": {
            "lat": 20.433504,
            "lng": 106.1504093
        }
    },
    {
        "name": "Cửa hàng xăng dầu số 71",
        "address": "Đường Nguyễn Tam Trinh, phường Yên Sở, quận Hoàng Mai, TP Hà nội.",
        "phone": "0438615565",
        "location": {
            "lat": 20.9940449,
            "lng": 105.8627907
        }
    },
    {
        "name": "Cửa hàng xăng dầu số 73",
        "address": "Đường Phan Trọng Tuệ, xã Tam Hiệp, huyện Thanh Trì, TP Hà nội.",
        "phone": "0436472997",
        "location": {
            "lat": 20.9458553,
            "lng": 105.829284
        }
    },
    {
        "name": "Cửa hàng xăng dầu số 74",
        "address": "Đường Ngọc Hồi, xã Ngũ Hiệp, huyện Thanh Trì, TP Hà nội.",
        "phone": "0438615387",
        "location": {
            "lat": 20.9309989,
            "lng": 105.8477187
        }
    },
    {
        "name": "Cửa hàng xăng dầu số 75",
        "address": "Linh Đàm, phường Đại Kim, quận Hoàng Mai, TP Hà nội.",
        "phone": "0436415123",
        "location": {
            "lat": 20.9713419,
            "lng": 105.8279961
        }
    },
    {
        "name": "Cửa hàng xăng dầu số 76",
        "address": "Km 14 quốc lộ 1A, xã Ngọc Hồi, huyện Thanh Trì, TP Hà nội.",
        "phone": "0438612094",
        "location": {
            "lat": 20.9175443,
            "lng": 105.8528164
        }
    },
    {
        "name": "Cửa hàng xăng dầu số 77",
        "address": "Đường Ỷ Lan, xã Phú Thị, huyện Gia Lâm, TP Hà nội",
        "phone": "0438765997",
        "location": {
            "lat": 21.023689,
            "lng": 105.9626181
        }
    },
    {
        "name": "Cửa hàng xăng dầu số 78",
        "address": "Số 23 phố Sài Đồng, phường Sài Đồng, quận Long Biên, TP Hà nội",
        "phone": "0438750730",
        "location": {
            "lat": 21.0337883,
            "lng": 105.9094413
        }
    },
    {
        "name": "Cửa hàng xăng dầu số 79",
        "address": "Số 457 đường Nguyễn Văn Linh, phường Phúc Đồng, quận Long Biên, TP Hà nội",
        "phone": "0438276561",
        "location": {
            "lat": 21.0335972,
            "lng": 105.9065385
        }
    },
    {
        "name": "Cửa hàng xăng dầu số 80",
        "address": "Km 10+5 QL5A, xã Dương Xá, huyện Gia Lâm, TP Hà nội",
        "phone": "0438276394",
        "location": {
            "lat": 21.021481,
            "lng": 105.937737
        }
    },
    {
        "name": "Cửa hàng xăng dầu số 82",
        "address": "Đường Đa Tốn, xã Đa Tốn, huyện Gia Lâm, TP Hà nội",
        "phone": "0438740407",
        "location": {
            "lat": 20.9856101,
            "lng": 105.9280726
        }
    },
    {
        "name": "Cửa hàng xăng dầu số 83",
        "address": "Km 7+200 QL5A, thị trấn Trâu Quỳ, huyện Gia Lâm, TP Hà nội (Nguyễn Đức Thuận)",
        "phone": "0438276294",
        "location": {
            "lat": 20.9337746,
            "lng": 106.0556858
        }
    },
    {
        "name": "Cửa hàng xăng dầu số 85",
        "address": "Số 549 đường Nguyễn Văn Cừ, phường Gia Thụy, quận Long Biên, TP Hà nội",
        "phone": "0438272462",
        "location": {
            "lat": 21.0504102,
            "lng": 105.8838495
        }
    },
    {
        "name": "Cửa hàng xăng dầu số 86",
        "address": "Số 26 phố Đức Giang, phường Đức Giang, quận Long Biên, TP Hà nội",
        "phone": "0436557013",
        "location": {
            "lat": 21.0620605,
            "lng": 105.8960379
        }
    },
    {
        "name": "Cửa hàng xăng dầu số 87",
        "address": "Cầu Đuống, xã Yên Viên, huyện Gia Lâm, TP Hà nội",
        "phone": "0438272461",
        "location": {
            "lat": 21.078403,
            "lng": 105.9091733
        }
    },
    {
        "name": "Cửa hàng xăng dầu số 88",
        "address": "Dốc Lã, xã Yên Thường, huyện Gia Lâm, TP Hà nội",
        "phone": "0438272782",
        "location": {
            "lat": 21.0986638,
            "lng": 105.9306998
        }
    },
    {
        "name": "Cửa hàng xăng dầu số 89",
        "address": "Km 6+500 QL5A, thị trấn Trâu Quỳ, huyện Gia Lâm, TP Hà nội (Nguyễn Đức Thuận)",
        "phone": "0438276501",
        "location": {
            "lat": 21.0164492,
            "lng": 105.945363
        }
    },
    {
        "name": "Cửa hàng xăng dầu số 90",
        "address": "Phố Cây Đa Bác Hồ, xã Cổ Loa, huyện Đông Anh, TP Hà nội",
        "phone": "0438832306",
        "location": {
            "lat": 21.1030657,
            "lng": 105.8655209
        }
    },
    {
        "name": "Cửa hàng xăng dầu số 91",
        "address": "Thôn Cổ Điển, xã Hải Bối, huyện Đông Anh, TP Hà nội",
        "phone": "0438810268",
        "location": {
            "lat": 21.1095432,
            "lng": 105.7901382
        }
    },
    {
        "name": "Cửa hàng xăng dầu số 92",
        "address": "Tổ 4 thị trấn Đông Anh, huyện Đông Anh, TP Hà nội (ngã ba Biến Thế)",
        "phone": "0438832522",
        "location": {
            "lat": 21.1611142,
            "lng": 105.8495796
        }
    },
    {
        "name": "Cửa hàng xăng dầu số 93",
        "address": "Xã Uy Nỗ, huyện Đông Anh, TP Hà nội",
        "phone": "0438835119",
        "location": {
            "lat": 21.1431669,
            "lng": 105.8554513
        }
    },
    {
        "name": "Cửa hàng xăng dầu số 94",
        "address": "Xã Nam Sơn, huyện Sóc Sơn, TP Hà nội",
        "phone": "0435962085",
        "location": {
            "lat": 21.3235995,
            "lng": 105.8172881
        }
    },
    {
        "name": "Cửa hàng xăng dầu số 95",
        "address": "Xã Phú Cường, huyện Sóc Sơn, TP Hà nội",
        "phone": "0438840938",
        "location": {
            "lat": 21.2046739,
            "lng": 105.7879371
        }
    },
    {
        "name": "Cửa hàng xăng dầu số 96",
        "address": "Ngã ba Phủ Lỗ, xã Phủ Lỗ, huyện Sóc Sơn, TP Hà nội",
        "phone": "0438843276",
        "location": {
            "lat": 21.1990662,
            "lng": 105.8466437
        }
    },
    {
        "name": "Cửa hàng xăng dầu số 97",
        "address": "Km 41 QL3, xã Tân Minh, huyện Sóc Sơn, TP Hà nội",
        "phone": "0438843508",
        "location": {
            "lat": 21.2671961,
            "lng": 105.8531806
        }
    },
    {
        "name": "Cửa hàng xăng dầu số 98",
        "address": "Khu D thị trấn Sóc Sơn, huyện Sóc Sơn, TP Hà nội",
        "phone": "0438852431",
        "location": {
            "lat": 21.2538445,
            "lng": 105.8495796
        }
    },
    {
        "name": "Cửa hàng xăng dầu số 99",
        "address": "Xã Kiêu Kỵ, huyện Gia Lâm, TP Hà nội",
        "phone": "0436770894",
        "location": {
            "lat": 20.9803677,
            "lng": 105.9523622
        }
    },
    {
        "name": "Cửa hàng xăng dầu số 100",
        "address": "Phố Ngô Xuân Quảng, thị trấn Trâu Quỳ, huyện Gia Lâm, TP Hà nội",
        "phone": "0436762532",
        "location": {
            "lat": 21.0112892,
            "lng": 105.9353508
        }
    },
    {
        "name": "Cửa hàng xăng dầu số 101",
        "address": "Xã Đại Thịnh, huyện Mê Linh, TP Hà nội",
        "phone": "0438165005",
        "location": {
            "lat": 21.1850027,
            "lng": 105.7204476
        }
    },
    {
        "name": "Cửa hàng xăng dầu số 102",
        "address": "Thôn Dục Nội, xã Việt Hùng, huyện Đông Anh, TP Hà nội",
        "phone": "0439632186",
        "location": {
            "lat": 21.1369962,
            "lng": 105.8745359
        }
    },
    {
        "name": "Cửa hàng xăng dầu số 103",
        "address": "Xã Tiên Dương, thị trấn Đông Anh, huyện Đông Anh, TP Hà nội",
        "phone": "0439655623",
        "location": {
            "lat": 21.1538228,
            "lng": 105.8349009
        }
    },
    {
        "name": "Cửa hàng xăng dầu số 105",
        "address": "Tổ 36, Thị trấn Đông Anh, Huyện Đông Anh, Hà Nội",
        "phone": "",
        "location": {
            "lat": 21.1611142,
            "lng": 105.8495796
        }
    },
    {
        "name": "Cửa hàng xăng dầu số 106",
        "address": "Quốc lộ 23B, xã Tiên Dương, huyện Đông Anh, TP Hà Nội",
        "phone": "",
        "location": {
            "lat": 21.1517578,
            "lng": 105.8323764
        }
    },
    {
        "name": "Cửa hàng xăng dầu số 107",
        "address": "Thôn Hà Lâm, xã Thụy Lâm, Huyện Đông Anh, TP Hà Nội",
        "phone": "",
        "location": {
            "lat": 21.1752761,
            "lng": 105.8762608
        }
    },
    {
        "name": "Cửa hàng xăng dầu số 113",
        "address": "Xã Hòa Loan- Vĩnh Tường- Vĩnh Phúc",
        "phone": "02113 855127",
        "location": {
            "lat": 21.2774207,
            "lng": 105.4644385
        }
    },
    {
        "name": "Cửa hàng xăng dầu số 114",
        "address": "Thị trấn Thổ Tang- Vĩnh Tường- Vĩnh Phúc",
        "phone": "02113 838169",
        "location": {
            "lat": 21.253509,
            "lng": 105.485898
        }
    },
    {
        "name": "Cửa hàng xăng dầu số 115",
        "address": "Hội Hợp- Vĩnh Yên- Vĩnh Phúc",
        "phone": "02113 867360",
        "location": {
            "lat": 21.292774,
            "lng": 105.5620927
        }
    },
    {
        "name": "Cửa hàng xăng dầu số 116",
        "address": "Mê Linh-Đống Đa- TP.Vĩnh Yên- Vĩnh Phúc",
        "phone": "0211.3862712",
        "location": {
            "lat": 21.3141986,
            "lng": 105.6042339
        }
    },
    {
        "name": "Cửa hàng xăng dầu số 117",
        "address": "TT Hương Canh-Bình Xuyên- Vĩnh Phúc",
        "phone": "0211.3866117",
        "location": {
            "lat": 21.2633295,
            "lng": 105.6588485
        }
    },
    {
        "name": "Cửa hàng xăng dầu số 118",
        "address": "Tiền Châu- Phúc Yên- Vĩnh Phúc",
        "phone": "0211.3869347",
        "location": {
            "lat": 21.2457721,
            "lng": 105.6911121
        }
    },
    {
        "name": "Cửa hàng xăng dầu số 120",
        "address": "Xã Phúc Thắng -Phúc Yên- Vĩnh PHúc",
        "phone": "0211.3869275",
        "location": {
            "lat": 21.2371877,
            "lng": 105.7204476
        }
    },
    {
        "name": "Cửa hàng xăng dầu số 121",
        "address": "Xã Vân Hội- Tam Dương- Vĩnh Phúc",
        "phone": "0211.3621421",
        "location": {
            "lat": 21.3060347,
            "lng": 105.5445064
        }
    },
    {
        "name": "Cửa hàng xăng dầu số 122",
        "address": "P.Phúc Thắng- TX.Phúc Yên - Vĩnh Phúc",
        "phone": "0211.3869031",
        "location": {
            "lat": 21.2371877,
            "lng": 105.7204476
        }
    },
    {
        "name": "Cửa hàng xăng dầu số 123",
        "address": "Xã Hoàng Lâu- Tam Dương- Vĩnh Phúc",
        "phone": "0211.3783444",
        "location": {
            "lat": 21.3309002,
            "lng": 105.5269218
        }
    },
    {
        "name": "Cửa hàng xăng dầu số 125",
        "address": "Tích Sơn- Vĩnh Yên- Vĩnh Phúc",
        "phone": "0211.3722884",
        "location": {
            "lat": 21.3079669,
            "lng": 105.5855438
        }
    },
    {
        "name": "Cửa hàng xăng dầu số 126",
        "address": "Hương Canh- Bình Xuyên- Vĩnh Phúc",
        "phone": "0211.3866098",
        "location": {
            "lat": 21.2633295,
            "lng": 105.6588485
        }
    },